{"type": "FeatureCollection", "features": [{"geometry": {"type": "Point", "coordinates": [-94.7404891, 32.5007037]}, "type": "Feature", "properties": {"category": "investment", "state": "TX", "state0": "TX", "GEOID": 30980, "NAME": "Longview, TX Metro Area"}, "id": "005f90fd633e991cae447c58c3fcda21"}, {"geometry": {"type": "Point", "coordinates": ["-87.6307265", "45.0999594"]}, "type": "Feature", "properties": {"category": "investment", "NAME": "Marinette, WI-MI Micro Area", "state": "WI-MI", "state1": "MI", "state0": "WI", "GEOID": 31940}, "id": "00600cc6a65576957b0db085aba94ed9"}, {"geometry": {"type": "Point", "coordinates": ["-84.4970393", "38.0464066"]}, "type": "Feature", "properties": {"category": "capitalized", "state": "KY", "state0": "KY", "GEOID": 30460, "NAME": "Lexington-Fayette, KY Metro Area"}, "id": "011c45d9b83a9e1934ce55af4d6de9e2"}, {"geometry": {"type": "Point", "coordinates": [-92.4451371, 31.3112936]}, "type": "Feature", "properties": {"category": "investment", "state": "LA", "state0": "LA", "GEOID": 10780, "NAME": "Alexandria, LA Metro Area"}, "id": "0296663d213b935e3b3637c6200b5e4b"}, {"geometry": {"type": "Point", "coordinates": [-97.336111, 37.688889]}, "type": "Feature", "properties": {"category": "growth", "state": "KS", "state0": "KS", "GEOID": 48620, "NAME": "Wichita, KS Metro Area"}, "id": "035120f6fe3a51a7b27423d71cd1baba"}, {"geometry": {"type": "Point", "coordinates": [-101.2922906, 48.2329668]}, "type": "Feature", "properties": {"category": "growth", "state": "ND", "state0": "ND", "GEOID": 33500, "NAME": "Minot, ND Micro Area"}, "id": "0357d1c2e2ee59906a79d00aa54b80cc"}, {"geometry": {"type": "Point", "coordinates": [-77.4302414, 34.7540524]}, "type": "Feature", "properties": {"category": "capitalized", "state": "NC", "state0": "NC", "GEOID": 27340, "NAME": "Jacksonville, NC Metro Area"}, "id": "04eeec7b9ce6ee943786c3a68a6038fe"}, {"geometry": {"type": "Point", "coordinates": [-83.555212, 41.6639383]}, "type": "Feature", "properties": {"category": "capitalized", "state": "OH", "state0": "OH", "GEOID": 45780, "NAME": "Toledo, OH Metro Area"}, "id": "04f4e39e3648104f23c4edfb54f1d16f"}, {"geometry": {"type": "Point", "coordinates": ["-85.4997057", "36.1623886"]}, "type": "Feature", "properties": {"category": "investment", "state": "TN", "state0": "TN", "GEOID": 18260, "NAME": "Cookeville, TN Micro Area"}, "id": "052c2a88ba87c49d46eeb547ef64026b"}, {"geometry": {"type": "Point", "coordinates": [-112.0740373, 33.4483771]}, "type": "Feature", "properties": {"category": "growth", "state": "AZ", "state0": "AZ", "GEOID": 38060, "NAME": "Phoenix-Mesa-Scottsdale, AZ Metro Area"}, "id": "05c442a65305cb612150d2a2abba5f54"}, {"geometry": {"type": "Point", "coordinates": ["-79.0083993", "34.6183433"]}, "type": "Feature", "properties": {"category": "investment", "state": "NC", "state0": "NC", "GEOID": 31300, "NAME": "Lumberton, NC Micro Area"}, "id": "0713cbab6517ce8cc7407a2ed1cc5c00"}, {"geometry": {"type": "Point", "coordinates": [-84.8766115, 35.1595182]}, "type": "Feature", "properties": {"category": "opportunity", "state": "TN", "state0": "TN", "GEOID": 17420, "NAME": "Cleveland, TN Metro Area"}, "id": "077aa9cc77136e53b1b321f91b5edec0"}, {"geometry": {"type": "Point", "coordinates": [-97.396381, 27.8005828]}, "type": "Feature", "properties": {"category": "opportunity", "state": "TX", "state0": "TX", "GEOID": 18580, "NAME": "Corpus Christi, TX Metro Area"}, "id": "0787d811ce9c75e55bc3777a7c545e93"}, {"geometry": {"type": "Point", "coordinates": ["-76.4233816", "40.3429683"]}, "type": "Feature", "properties": {"category": "capitalized", "state": "PA", "state0": "PA", "GEOID": 30140, "NAME": "Lebanon, PA Metro Area"}, "id": "07b2f05a9964aa3828c38c50fc0799c8"}, {"geometry": {"type": "Point", "coordinates": [-86.4808043, 36.9685219]}, "type": "Feature", "properties": {"category": "investment", "state": "KY", "state0": "KY", "GEOID": 14540, "NAME": "Bowling Green, KY Metro Area"}, "id": "07b6203b187c225edc92cc211ac59c49"}, {"geometry": {"type": "Point", "coordinates": ["-84.1766359", "42.9978049"]}, "type": "Feature", "properties": {"category": "investment", "state": "MI", "state0": "MI", "GEOID": 37020, "NAME": "Owosso, MI Micro Area"}, "id": "080ebdd6ff1ddb8417fb78c072fd69d8"}, {"geometry": {"type": "Point", "coordinates": [-88.9936873, 40.4842027]}, "type": "Feature", "properties": {"category": "capitalized", "state": "IL", "state0": "IL", "GEOID": 14010, "NAME": "Bloomington, IL Metro Area"}, "id": "082b371f0d5905bcb3d9c75368d8ca55"}, {"geometry": {"type": "Point", "coordinates": ["-84.0373054", "41.8975152"]}, "type": "Feature", "properties": {"category": "investment", "state": "MI", "state0": "MI", "GEOID": 10300, "NAME": "Adrian, MI Micro Area"}, "id": "0889d1eb89a59cad0a90edb200eff4f0"}, {"geometry": {"type": "Point", "coordinates": ["-87.6575841", "44.0886059"]}, "type": "Feature", "properties": {"category": "investment", "state": "WI", "state0": "WI", "GEOID": 31820, "NAME": "Manitowoc, WI Micro Area"}, "id": "08d45675d2d3abd431fbd287971d9b03"}, {"geometry": {"type": "Point", "coordinates": ["-80.789809", "41.865054"]}, "type": "Feature", "properties": {"category": "investment", "state": "OH", "state0": "OH", "GEOID": 11780, "NAME": "Ashtabula, OH Micro Area"}, "id": "08e3d0530a7a9ed1bbce7cff476783dc"}, {"geometry": {"type": "Point", "coordinates": ["-85.8316326", "33.6594422"]}, "type": "Feature", "properties": {"category": "investment", "state": "AL", "state0": "AL", "GEOID": 11500, "NAME": "Anniston-Oxford-Jacksonville, AL Metro Area"}, "id": "0a8ffdf3760901e0afc3baabe0d26d4e"}, {"geometry": {"type": "Point", "coordinates": [-117.3961564, 33.9533487]}, "type": "Feature", "properties": {"category": "capitalized", "state": "CA", "state0": "CA", "GEOID": 40140, "NAME": "Riverside-San Bernardino-Ontario, CA Metro Area"}, "id": "0ad392900b10dd1bad3c6ed6a1f03336"}, {"geometry": {"type": "Point", "coordinates": ["-83.1285242", "40.5886699"]}, "type": "Feature", "properties": {"category": "opportunity", "state": "OH", "state0": "OH", "GEOID": 32020, "NAME": "Marion, OH Micro Area"}, "id": "0b1411cdd346c606ebd362ac6583ed01"}, {"geometry": {"type": "Point", "coordinates": ["-81.7942944", "26.1421976"]}, "type": "Feature", "properties": {"category": "capitalized", "state": "FL", "state0": "FL", "GEOID": 34940, "NAME": "Naples-Immokalee-Marco Island, FL Metro Area"}, "id": "0bf5f1ff5c6e37ceeecb9d02452617c7"}, {"geometry": {"type": "Point", "coordinates": ["-80.6071609", "36.4993297"]}, "type": "Feature", "properties": {"category": "opportunity", "state": "NC", "state0": "NC", "GEOID": 34340, "NAME": "Mount Airy, NC Micro Area"}, "id": "0c5f58934069ccaad504f44ba3a20293"}, {"geometry": {"type": "Point", "coordinates": [-76.6121893, 39.2903848]}, "type": "Feature", "properties": {"category": "capitalized", "state": "MD", "state0": "MD", "GEOID": 12580, "NAME": "Baltimore-Columbia-Towson, MD Metro Area"}, "id": "0c6b329d0299416399ce944d8032123b"}, {"geometry": {"type": "Point", "coordinates": [-121.3153096, 44.0581728]}, "type": "Feature", "properties": {"category": "capitalized", "state": "OR", "state0": "OR", "GEOID": 13460, "NAME": "Bend-Redmond, OR Metro Area"}, "id": "0cbe2b251838d7c03339f4a88d1a9e03"}, {"geometry": {"type": "Point", "coordinates": ["-119.2894605", "45.8404101"]}, "type": "Feature", "properties": {"category": "investment", "state": "OR", "state0": "OR", "GEOID": 25840, "NAME": "Hermiston-Pendleton, OR Micro Area"}, "id": "0cc806e05c2659933ee96fd9dad9628a"}, {"geometry": {"type": "Point", "coordinates": [-94.1574263, 36.0625795]}, "type": "Feature", "properties": {"category": "investment", "NAME": "Fayetteville-Springdale-Rogers, AR-MO Metro Area", "state": "AR-MO", "state1": "MO", "state0": "AR", "GEOID": 22220}, "id": "0d329f4d0ba3ee802125dc0339a49eb7"}, {"geometry": {"type": "Point", "coordinates": ["-82.7079605", "41.4489397"]}, "type": "Feature", "properties": {"category": "capitalized", "state": "OH", "state0": "OH", "GEOID": 41780, "NAME": "Sandusky, OH Micro Area"}, "id": "0d78e026bc0a1fda17cf55fa83ed96e5"}, {"geometry": {"type": "Point", "coordinates": ["-82.0131924", "39.9403453"]}, "type": "Feature", "properties": {"category": "investment", "state": "OH", "state0": "OH", "GEOID": 49780, "NAME": "Zanesville, OH Micro Area"}, "id": "0e3557db05cea9ecc25dc3d3d9659c3a"}, {"geometry": {"type": "Point", "coordinates": [-121.8374777, 39.7284944]}, "type": "Feature", "properties": {"category": "growth", "state": "CA", "state0": "CA", "GEOID": 17020, "NAME": "Chico, CA Metro Area"}, "id": "0e5e2d332ca176cbb6c32cf34896ac77"}, {"geometry": {"type": "Point", "coordinates": ["-73.1212214", "41.8006523"]}, "type": "Feature", "properties": {"category": "capitalized", "state": "CT", "state0": "CT", "GEOID": 45860, "NAME": "Torrington, CT Micro Area"}, "id": "0e95e3835ed246df75dc691a9e145bb6"}, {"geometry": {"type": "Point", "coordinates": [-98.4936282, 29.4241219]}, "type": "Feature", "properties": {"category": "opportunity", "state": "TX", "state0": "TX", "GEOID": 41700, "NAME": "San Antonio-New Braunfels, TX Metro Area"}, "id": "0eabf851df9c96d9afa7c041c15fdba6"}, {"geometry": {"type": "Point", "coordinates": ["-93.0552437", "34.5038393"]}, "type": "Feature", "properties": {"category": "opportunity", "state": "AR", "state0": "AR", "GEOID": 26300, "NAME": "Hot Springs, AR Metro Area"}, "id": "0f3cac81ed25be35337c0080fa9ab5b8"}, {"geometry": {"type": "Point", "coordinates": [-97.7430608, 30.267153]}, "type": "Feature", "properties": {"category": "capitalized", "state": "TX", "state0": "TX", "GEOID": 12420, "NAME": "Austin-Round Rock, TX Metro Area"}, "id": "0f896a339855a3c8ef3d21d437868251"}, {"geometry": {"type": "Point", "coordinates": [-74.4229266, 39.3642834]}, "type": "Feature", "properties": {"category": "capitalized", "state": "NJ", "state0": "NJ", "GEOID": 12100, "NAME": "Atlantic City-Hammonton, NJ Metro Area"}, "id": "0fd59c83934454f971e0d44e399e2666"}, {"geometry": {"type": "Point", "coordinates": ["-80.8567502", "40.9008923"]}, "type": "Feature", "properties": {"category": "investment", "state": "OH", "state0": "OH", "GEOID": 41400, "NAME": "Salem, OH Micro Area"}, "id": "0fffce2a29fcadd2db5de2d96406f9b5"}, {"geometry": {"type": "Point", "coordinates": [-101.8551665, 33.5778631]}, "type": "Feature", "properties": {"category": "capitalized", "state": "TX", "state0": "TX", "GEOID": 31180, "NAME": "Lubbock, TX Metro Area"}, "id": "10a24cae13586134b09bb520ce60e71d"}, {"geometry": {"type": "Point", "coordinates": [-97.9297743, 38.0608445]}, "type": "Feature", "properties": {"category": "investment", "state": "KS", "state0": "KS", "GEOID": 26740, "NAME": "Hutchinson, KS Micro Area"}, "id": "10ec6b1ca27802609d82144c8701b8fc"}, {"geometry": {"type": "Point", "coordinates": [-97.0328547, 47.9252568]}, "type": "Feature", "properties": {"category": "capitalized", "NAME": "Grand Forks, ND-MN Metro Area", "state": "ND-MN", "state1": "MN", "state0": "ND", "GEOID": 24220}, "id": "11126765981ffc124ea52fb1fc35cae1"}, {"geometry": {"type": "Point", "coordinates": [-72.9278835, 41.308274]}, "type": "Feature", "properties": {"category": "capitalized", "state": "CT", "state0": "CT", "GEOID": 35300, "NAME": "New Haven-Milford, CT Metro Area"}, "id": "125f251a0872a25766bff7af5bc11e1b"}, {"geometry": {"type": "Point", "coordinates": ["-108.7439489", "35.5283573"]}, "type": "Feature", "properties": {"category": "investment", "state": "NM", "state0": "NM", "GEOID": 23700, "NAME": "Gallup, NM Micro Area"}, "id": "12f138d8b04f7076e617ee2615b9b40e"}, {"geometry": {"type": "Point", "coordinates": [-98.2300124, 26.2034071]}, "type": "Feature", "properties": {"category": "opportunity", "state": "TX", "state0": "TX", "GEOID": 32580, "NAME": "McAllen-Edinburg-Mission, TX Metro Area"}, "id": "1304a626bc02f2b256f7820011f4ca45"}, {"geometry": {"type": "Point", "coordinates": [-84.2472116, 43.6155825]}, "type": "Feature", "properties": {"category": "growth", "state": "MI", "state0": "MI", "GEOID": 33220, "NAME": "Midland, MI Metro Area"}, "id": "13268a6545a221ff5a605d12cbbcd139"}, {"geometry": {"type": "Point", "coordinates": [-92.2895948, 34.7464809]}, "type": "Feature", "properties": {"category": "opportunity", "state": "AR", "state0": "AR", "GEOID": 30780, "NAME": "Little Rock-North Little Rock-Conway, AR Metro Area"}, "id": "1336304d8c7df5903dbcb261cdf56f01"}, {"geometry": {"type": "Point", "coordinates": [-78.8783689, 42.8864468]}, "type": "Feature", "properties": {"category": "capitalized", "state": "NY", "state0": "NY", "GEOID": 15380, "NAME": "Buffalo-Cheektowaga-Niagara Falls, NY Metro Area"}, "id": "143158748af31bac3e95bb681256e035"}, {"geometry": {"type": "Point", "coordinates": [-88.8139469, 35.6145169]}, "type": "Feature", "properties": {"category": "investment", "state": "TN", "state0": "TN", "GEOID": 27180, "NAME": "Jackson, TN Metro Area"}, "id": "14e3df7c67a1520385818f0a1c77cef7"}, {"geometry": {"type": "Point", "coordinates": ["-85.0313269", "33.039291"]}, "type": "Feature", "properties": {"category": "investment", "state": "GA", "state0": "GA", "GEOID": 29300, "NAME": "LaGrange, GA Micro Area"}, "id": "160c18da9a399f44d72a8e46189aed66"}, {"geometry": {"type": "Point", "coordinates": [-111.651302, 35.1982836]}, "type": "Feature", "properties": {"category": "investment", "state": "AZ", "state0": "AZ", "GEOID": 22380, "NAME": "Flagstaff, AZ Metro Area"}, "id": "166636306b7b610e42d3d8d24b910703"}, {"geometry": {"type": "Point", "coordinates": [-87.3594528, 36.5297706]}, "type": "Feature", "properties": {"category": "growth", "NAME": "Clarksville, TN-KY Metro Area", "state": "TN-KY", "state1": "KY", "state0": "TN", "GEOID": 17300}, "id": "1694b45da3665618f2d6eeeaaea0ad7c"}, {"geometry": {"type": "Point", "coordinates": [-119.7725868, 36.7468422]}, "type": "Feature", "properties": {"category": "investment", "state": "CA", "state0": "CA", "GEOID": 23420, "NAME": "Fresno, CA Metro Area"}, "id": "169fb4a2f8478cf7acf6b7f19e5c9592"}, {"geometry": {"type": "Point", "coordinates": [-93.2173758, 30.2265949]}, "type": "Feature", "properties": {"category": "investment", "state": "LA", "state0": "LA", "GEOID": 29340, "NAME": "Lake Charles, LA Metro Area"}, "id": "16a6ca9b3b89887e7db76d0cf7d71ceb"}, {"geometry": {"type": "Point", "coordinates": ["-72.2784264", "42.933597"]}, "type": "Feature", "properties": {"category": "growth", "state": "NH", "state0": "NH", "GEOID": 28300, "NAME": "Keene, NH Micro Area"}, "id": "17559b5a120f9274a9f34061e6d7279b"}, {"geometry": {"type": "Point", "coordinates": ["-81.4410425", "27.4957453"]}, "type": "Feature", "properties": {"category": "investment", "state": "FL", "state0": "FL", "GEOID": 42700, "NAME": "Sebring, FL Metro Area"}, "id": "175a06d3a71bf13246250f906fa375ca"}, {"geometry": {"type": "Point", "coordinates": [-77.7199932, 39.6417629]}, "type": "Feature", "properties": {"category": "capitalized", "NAME": "Hagerstown-Martinsburg, MD-WV Metro Area", "state": "MD-WV", "state1": "WV", "state0": "MD", "GEOID": 25180}, "id": "17aa04199b6eea07a2040229f43b792c"}, {"geometry": {"type": "Point", "coordinates": ["-118.3302476", "46.0650381"]}, "type": "Feature", "properties": {"category": "capitalized", "state": "WA", "state0": "WA", "GEOID": 47460, "NAME": "Walla Walla, WA Metro Area"}, "id": "181f78f68ba3fa9ff36405f5e8c21167"}, {"geometry": {"type": "Point", "coordinates": ["-82.0453664", "26.9297836"]}, "type": "Feature", "properties": {"category": "capitalized", "state": "FL", "state0": "FL", "GEOID": 39460, "NAME": "Punta Gorda, FL Metro Area"}, "id": "18c58d6363f911bac5e2c0ff94606591"}, {"geometry": {"type": "Point", "coordinates": ["-88.1761521", "39.4961458"]}, "type": "Feature", "properties": {"category": "investment", "state": "IL", "state0": "IL", "GEOID": 16660, "NAME": "Charleston-Mattoon, IL Micro Area"}, "id": "18e69d5d1d7fd5676cee1467265f7a2c"}, {"geometry": {"type": "Point", "coordinates": ["-76.5074542", "38.3004029"]}, "type": "Feature", "properties": {"category": "opportunity", "state": "MD", "state0": "MD", "GEOID": 15680, "NAME": "California-Lexington Park, MD Metro Area"}, "id": "190ceea4399060e70242d9c2821b6818"}, {"geometry": {"type": "Point", "coordinates": [-90.6645718, 42.5005583]}, "type": "Feature", "properties": {"category": "growth", "state": "IA", "state0": "IA", "GEOID": 20220, "NAME": "Dubuque, IA Metro Area"}, "id": "1a07ebdc6f814be3463e608ad6dc9bbd"}, {"geometry": {"type": "Point", "coordinates": [-97.5164276, 35.4675602]}, "type": "Feature", "properties": {"category": "investment", "state": "OK", "state0": "OK", "GEOID": 36420, "NAME": "Oklahoma City, OK Metro Area"}, "id": "1a565bbfaffdc868ee5e5f40031c3a02"}, {"geometry": {"type": "Point", "coordinates": ["-85.9989596", "34.010929"]}, "type": "Feature", "properties": {"category": "opportunity", "state": "AL", "state0": "AL", "GEOID": 23460, "NAME": "Gadsden, AL Metro Area"}, "id": "1af9d4d064d485378dada126a71de706"}, {"geometry": {"type": "Point", "coordinates": ["-122.6263728", "38.9582307"]}, "type": "Feature", "properties": {"category": "investment", "state": "CA", "state0": "CA", "GEOID": 17340, "NAME": "Clearlake, CA Micro Area"}, "id": "1b5bcdbb085eb58ae9f95485ecac2a7b"}, {"geometry": {"type": "Point", "coordinates": [-71.4547891, 42.9956397]}, "type": "Feature", "properties": {"category": "capitalized", "state": "NH", "state0": "NH", "GEOID": 31700, "NAME": "Manchester-Nashua, NH Metro Area"}, "id": "1cae5bcc3422dbe041dc8ca007181cc6"}, {"geometry": {"type": "Point", "coordinates": [-97.8783911, 36.3955891]}, "type": "Feature", "properties": {"category": "investment", "state": "OK", "state0": "OK", "GEOID": 21420, "NAME": "Enid, OK Metro Area"}, "id": "1d2e32943f91aa0a50e4ee478a751c01"}, {"geometry": {"type": "Point", "coordinates": [-95.3696909, 35.7478769]}, "type": "Feature", "properties": {"category": "investment", "state": "OK", "state0": "OK", "GEOID": 34780, "NAME": "Muskogee, OK Micro Area"}, "id": "1dd175ebf3cf0afe4994cc0958409407"}, {"geometry": {"type": "Point", "coordinates": ["-86.2088669", "34.2675937"]}, "type": "Feature", "properties": {"category": "opportunity", "state": "AL", "state0": "AL", "GEOID": 10700, "NAME": "Albertville, AL Micro Area"}, "id": "1e99fcb69316413fdd13e38da3443bf4"}, {"geometry": {"type": "Point", "coordinates": ["-81.4456706", "40.4897871"]}, "type": "Feature", "properties": {"category": "investment", "state": "OH", "state0": "OH", "GEOID": 35420, "NAME": "New Philadelphia-Dover, OH Micro Area"}, "id": "1eb39f042944fd026bc59d2f36853a50"}, {"geometry": {"type": "Point", "coordinates": ["-94.2008288", "46.3580221"]}, "type": "Feature", "properties": {"category": "growth", "state": "MN", "state0": "MN", "GEOID": 14660, "NAME": "Brainerd, MN Micro Area"}, "id": "1eddf5ba5770428a8889392bdc8065b0"}, {"geometry": {"type": "Point", "coordinates": [-106.4424559, 31.7775757]}, "type": "Feature", "properties": {"category": "opportunity", "state": "TX", "state0": "TX", "GEOID": 21340, "NAME": "El Paso, TX Metro Area"}, "id": "1f4cdf7127a977ce9f87807f5832aed9"}, {"geometry": {"type": "Point", "coordinates": [-90.1848103, 32.2987573]}, "type": "Feature", "properties": {"category": "investment", "state": "MS", "state0": "MS", "GEOID": 27140, "NAME": "Jackson, MS Metro Area"}, "id": "1faccf08bc058e34a5a7fedae7d040da"}, {"geometry": {"type": "Point", "coordinates": [-99.7331439, 32.4487364]}, "type": "Feature", "properties": {"category": "investment", "state": "TX", "state0": "TX", "GEOID": 10180, "NAME": "Abilene, TX Metro Area"}, "id": "20693b79168dcd5a72c7c5eb1c5fd709"}, {"geometry": {"type": "Point", "coordinates": [-83.6324022, 32.8406946]}, "type": "Feature", "properties": {"category": "investment", "state": "GA", "state0": "GA", "GEOID": 31420, "NAME": "Macon-Bibb County, GA Metro Area"}, "id": "20cf938c1a8b880b17a1bcc84285b2e9"}, {"geometry": {"type": "Point", "coordinates": [-102.0779146, 31.9973456]}, "type": "Feature", "properties": {"category": "capitalized", "state": "TX", "state0": "TX", "GEOID": 33260, "NAME": "Midland, TX Metro Area"}, "id": "2187f8acf9ebc3fa8202085a9e126961"}, {"geometry": {"type": "Point", "coordinates": ["-122.6432245", "48.2931559"]}, "type": "Feature", "properties": {"category": "capitalized", "state": "WA", "state0": "WA", "GEOID": 36020, "NAME": "Oak Harbor, WA Micro Area"}, "id": "2269f12a2f050692bc1365693e6df6eb"}, {"geometry": {"type": "Point", "coordinates": [-77.8600012, 40.7933949]}, "type": "Feature", "properties": {"category": "growth", "state": "PA", "state0": "PA", "GEOID": 44300, "NAME": "State College, PA Metro Area"}, "id": "22758e3cc935578b7db531ba598d43cc"}, {"geometry": {"type": "Point", "coordinates": ["-82.8309861", "36.1631575"]}, "type": "Feature", "properties": {"category": "opportunity", "state": "TN", "state0": "TN", "GEOID": 24620, "NAME": "Greeneville, TN Micro Area"}, "id": "2287ca9766d8d7993dd50ea5c2808393"}, {"geometry": {"type": "Point", "coordinates": ["-124.2178903", "43.3665007"]}, "type": "Feature", "properties": {"category": "investment", "state": "OR", "state0": "OR", "GEOID": 18300, "NAME": "Coos Bay, OR Micro Area"}, "id": "22e48268c14e03151e1086bef2c45ea5"}, {"geometry": {"type": "Point", "coordinates": [-95.2352501, 38.9716689]}, "type": "Feature", "properties": {"category": "capitalized", "state": "KS", "state0": "KS", "GEOID": 29940, "NAME": "Lawrence, KS Metro Area"}, "id": "23240f8cfc1190e9e5aa90da947b40c4"}, {"geometry": {"type": "Point", "coordinates": [-70.2553259, 43.661471]}, "type": "Feature", "properties": {"category": "capitalized", "state": "ME", "state0": "ME", "GEOID": 38860, "NAME": "Portland-South Portland, ME Metro Area"}, "id": "2330164fb51c83583903dc41732ca358"}, {"geometry": {"type": "Point", "coordinates": [-73.7562317, 42.6525793]}, "type": "Feature", "properties": {"category": "capitalized", "state": "NY", "state0": "NY", "GEOID": 10580, "NAME": "Albany-Schenectady-Troy, NY Metro Area"}, "id": "239e72fbd170b69938948e625a55c612"}, {"geometry": {"type": "Point", "coordinates": ["-92.081509", "30.5335302"]}, "type": "Feature", "properties": {"category": "investment", "state": "LA", "state0": "LA", "GEOID": 36660, "NAME": "Opelousas, LA Micro Area"}, "id": "24067bd0f157a1392a62bed67391eaa7"}, {"geometry": {"type": "Point", "coordinates": [-96.5716694, 39.1836082]}, "type": "Feature", "properties": {"category": "growth", "state": "KS", "state0": "KS", "GEOID": 31740, "NAME": "Manhattan, KS Metro Area"}, "id": "24133b9653ae0d60facfe4d79983e54f"}, {"geometry": {"type": "Point", "coordinates": [-92.1735164, 38.5767017]}, "type": "Feature", "properties": {"category": "investment", "state": "MO", "state0": "MO", "GEOID": 27620, "NAME": "Jefferson City, MO Metro Area"}, "id": "24ecc534e4091b21d16b2e3613ca2a4a"}, {"geometry": {"type": "Point", "coordinates": [-84.5555347, 42.732535]}, "type": "Feature", "properties": {"category": "capitalized", "state": "MI", "state0": "MI", "GEOID": 29620, "NAME": "Lansing-East Lansing, MI Metro Area"}, "id": "252fc304c4745c73594ff1ed5ced6fd4"}, {"geometry": {"type": "Point", "coordinates": [-87.6297982, 41.8781136]}, "type": "Feature", "properties": {"category": "capitalized", "NAME": "Chicago-Naperville-Elgin, IL-IN-WI Metro Area", "state": "IL-IN-WI", "state2": "WI", "state1": "IN", "state0": "IL", "GEOID": 16980}, "id": "264545efa8c674d9a77bec28441eb8fd"}, {"geometry": {"type": "Point", "coordinates": [-92.3340724, 38.9517053]}, "type": "Feature", "properties": {"category": "growth", "state": "MO", "state0": "MO", "GEOID": 17860, "NAME": "Columbia, MO Metro Area"}, "id": "278d324e861af4a9c4503fa42acff64f"}, {"geometry": {"type": "Point", "coordinates": [-91.5301683, 41.6611277]}, "type": "Feature", "properties": {"category": "capitalized", "state": "IA", "state0": "IA", "GEOID": 26980, "NAME": "Iowa City, IA Metro Area"}, "id": "283de6bbe716109fd18c38494499da9e"}, {"geometry": {"type": "Point", "coordinates": ["-81.5506916", "39.2699565"]}, "type": "Feature", "properties": {"category": "growth", "state": "WV", "state0": "WV", "GEOID": 37620, "NAME": "Parkersburg-Vienna, WV Metro Area"}, "id": "2865baab6cc83bf3e16196e98b71ffcc"}, {"geometry": {"type": "Point", "coordinates": [-98.4933873, 33.9137085]}, "type": "Feature", "properties": {"category": "investment", "state": "TX", "state0": "TX", "GEOID": 48660, "NAME": "Wichita Falls, TX Metro Area"}, "id": "2872c95a6a0d188f94194cf9c99c06d6"}, {"geometry": {"type": "Point", "coordinates": ["-81.1881557", "37.7781702"]}, "type": "Feature", "properties": {"category": "investment", "state": "WV", "state0": "WV", "GEOID": 13220, "NAME": "Beckley, WV Metro Area"}, "id": "28d04ddf9115599cca4aa045a1c47973"}, {"geometry": {"type": "Point", "coordinates": [-71.0588801, 42.3600825]}, "type": "Feature", "properties": {"category": "capitalized", "NAME": "Boston-Cambridge-Newton, MA-NH Metro Area", "state": "MA-NH", "state1": "NH", "state0": "MA", "GEOID": 14460}, "id": "2917843f8fe5adac3e036d734b098659"}, {"geometry": {"type": "Point", "coordinates": [-77.0368707, 38.9071923]}, "type": "Feature", "properties": {"category": "capitalized", "NAME": "Washington-Arlington-Alexandria, DC-VA-MD-WV Metro Area", "state": "DC-VA-MD-WV", "state3": "WV", "state2": "MD", "state1": "VA", "state0": "DC", "GEOID": 47900}, "id": "29781b81bac7730394301576e15b56da"}, {"geometry": {"type": "Point", "coordinates": [-82.5618186, 36.548434]}, "type": "Feature", "properties": {"category": "investment", "NAME": "Kingsport-Bristol-Bristol, TN-VA Metro Area", "state": "TN-VA", "state1": "VA", "state0": "TN", "GEOID": 28700}, "id": "2a3c7662f74f03c4dcbffdd07e64c4e3"}, {"geometry": {"type": "Point", "coordinates": [-86.1336033, 40.486427]}, "type": "Feature", "properties": {"category": "investment", "state": "IN", "state0": "IN", "GEOID": 29020, "NAME": "Kokomo, IN Metro Area"}, "id": "2a54803e1ad06c05724856c06f7593b8"}, {"geometry": {"type": "Point", "coordinates": [-88.0398912, 30.6953657]}, "type": "Feature", "properties": {"category": "investment", "state": "AL", "state0": "AL", "GEOID": 33660, "NAME": "Mobile, AL Metro Area"}, "id": "2a5fdc36810252287d60b0151deab3f8"}, {"geometry": {"type": "Point", "coordinates": [-85.6680863, 42.9633599]}, "type": "Feature", "properties": {"category": "growth", "state": "MI", "state0": "MI", "GEOID": 24340, "NAME": "Grand Rapids-Wyoming, MI Metro Area"}, "id": "2aa899c1ab8d42bf9313533f0f560555"}, {"geometry": {"type": "Point", "coordinates": [-84.9877094, 32.4609764]}, "type": "Feature", "properties": {"category": "opportunity", "NAME": "Columbus, GA-AL Metro Area", "state": "GA-AL", "state1": "AL", "state0": "GA", "GEOID": 17980}, "id": "2abf599e14166165c3fbd1d352439bfa"}, {"geometry": {"type": "Point", "coordinates": [-78.8783585, 35.0526641]}, "type": "Feature", "properties": {"category": "capitalized", "state": "NC", "state0": "NC", "GEOID": 22180, "NAME": "Fayetteville, NC Metro Area"}, "id": "2b98a01e37302e389a7a7e197d2b40b2"}, {"geometry": {"type": "Point", "coordinates": [-105.937799, 35.6869752]}, "type": "Feature", "properties": {"category": "investment", "state": "NM", "state0": "NM", "GEOID": 42140, "NAME": "Santa Fe, NM Metro Area"}, "id": "2bc24a4ee40e208e28ce6dd09256af0e"}, {"geometry": {"type": "Point", "coordinates": [-89.4012302, 43.0730517]}, "type": "Feature", "properties": {"category": "growth", "state": "WI", "state0": "WI", "GEOID": 31540, "NAME": "Madison, WI Metro Area"}, "id": "2bd36080ef5af772b4dff72de4a002b7"}, {"geometry": {"type": "Point", "coordinates": [-83.8088171, 39.9242266]}, "type": "Feature", "properties": {"category": "opportunity", "state": "OH", "state0": "OH", "GEOID": 44220, "NAME": "Springfield, OH Metro Area"}, "id": "2bd7cbacc3746827c4a1181571a0bf5b"}, {"geometry": {"type": "Point", "coordinates": [-84.5120196, 39.1031182]}, "type": "Feature", "properties": {"category": "capitalized", "NAME": "Cincinnati, OH-KY-IN Metro Area", "state": "OH-KY-IN", "state2": "IN", "state1": "KY", "state0": "OH", "GEOID": 17140}, "id": "2dd76f2be16f7192cb74b850cafc44fe"}, {"geometry": {"type": "Point", "coordinates": [-87.677251, 34.79981]}, "type": "Feature", "properties": {"category": "investment", "state": "AL", "state0": "AL", "GEOID": 22520, "NAME": "Florence-Muscle Shoals, AL Metro Area"}, "id": "2f40520af41eaa8a20d9b0c6c194ffcc"}, {"geometry": {"type": "Point", "coordinates": [-110.2772856, 31.5455001]}, "type": "Feature", "properties": {"category": "investment", "state": "AZ", "state0": "AZ", "GEOID": 43420, "NAME": "Sierra Vista-Douglas, AZ Metro Area"}, "id": "2f7efed70a775d79703e4762cd803f02"}, {"geometry": {"type": "Point", "coordinates": ["-79.1525349", "40.6214551"]}, "type": "Feature", "properties": {"category": "investment", "state": "PA", "state0": "PA", "GEOID": 26860, "NAME": "Indiana, PA Micro Area"}, "id": "2fc41885c49ae574e925371472e2cc2a"}, {"geometry": {"type": "Point", "coordinates": [-86.2999689, 32.3668052]}, "type": "Feature", "properties": {"category": "investment", "state": "AL", "state0": "AL", "GEOID": 33860, "NAME": "Montgomery, AL Metro Area"}, "id": "3011e7bc301586f994f381681d34cd61"}, {"geometry": {"type": "Point", "coordinates": [-105.2705456, 40.0149856]}, "type": "Feature", "properties": {"category": "capitalized", "state": "CO", "state0": "CO", "GEOID": 14500, "NAME": "Boulder, CO Metro Area"}, "id": "3036205c09041a0a712baaeb8944253e"}, {"geometry": {"type": "Point", "coordinates": ["-80.151449", "41.641445"]}, "type": "Feature", "properties": {"category": "investment", "state": "PA", "state0": "PA", "GEOID": 32740, "NAME": "Meadville, PA Micro Area"}, "id": "311a9d6de39eab5ec9584db87abe7e0e"}, {"geometry": {"type": "Point", "coordinates": [-78.4766781, 38.0293059]}, "type": "Feature", "properties": {"category": "investment", "state": "VA", "state0": "VA", "GEOID": 16820, "NAME": "Charlottesville, VA Metro Area"}, "id": "321a1ad925086bc5887d7d7419b2ea7d"}, {"geometry": {"type": "Point", "coordinates": ["-89.8228767", "44.3917589"]}, "type": "Feature", "properties": {"category": "investment", "state": "WI", "state0": "WI", "GEOID": 49220, "NAME": "Wisconsin Rapids-Marshfield, WI Micro Area"}, "id": "32a7d73401d72ca4ee5d219f8a207638"}, {"geometry": {"type": "Point", "coordinates": [-80.8431267, 35.2270869]}, "type": "Feature", "properties": {"category": "capitalized", "NAME": "Charlotte-Concord-Gastonia, NC-SC Metro Area", "state": "NC-SC", "state1": "SC", "state0": "NC", "GEOID": 16740}, "id": "332f15f184e17e9c32147478d048cf7b"}, {"geometry": {"type": "Point", "coordinates": [-72.600258, 42.587879]}, "type": "Feature", "properties": {"category": "growth", "state": "MA", "state0": "MA", "GEOID": 24640, "NAME": "Greenfield Town, MA Micro Area"}, "id": "3360efb8749d886b05589b52620df09c"}, {"geometry": {"type": "Point", "coordinates": ["-86.2541768", "41.8297694"]}, "type": "Feature", "properties": {"category": "investment", "state": "MI", "state0": "MI", "GEOID": 35660, "NAME": "Niles-Benton Harbor, MI Metro Area"}, "id": "33ba9af64a9046fadcf9a51467ecc8cf"}, {"geometry": {"type": "Point", "coordinates": [-80.3582261, 27.2730492]}, "type": "Feature", "properties": {"category": "capitalized", "state": "FL", "state0": "FL", "GEOID": 38940, "NAME": "Port St. Lucie, FL Metro Area"}, "id": "33ff5f70535d6761bd30586b72b1e0ff"}, {"geometry": {"type": "Point", "coordinates": [-85.1393513, 41.079273]}, "type": "Feature", "properties": {"category": "growth", "state": "IN", "state0": "IN", "GEOID": 23060, "NAME": "Fort Wayne, IN Metro Area"}, "id": "34910cb6ed3c288dea28bca09b85cc54"}, {"geometry": {"type": "Point", "coordinates": ["-85.8591285", "37.693952"]}, "type": "Feature", "properties": {"category": "capitalized", "state": "KY", "state0": "KY", "GEOID": 21060, "NAME": "Elizabethtown-Fort Knox, KY Metro Area"}, "id": "35978066a5bbac250662968fa38f8ffa"}, {"geometry": {"type": "Point", "coordinates": ["-93.1337856", "35.2784173"]}, "type": "Feature", "properties": {"category": "investment", "state": "AR", "state0": "AR", "GEOID": 40780, "NAME": "Russellville, AR Micro Area"}, "id": "35afb1fa1669d85cb981c487058d8f96"}, {"geometry": {"type": "Point", "coordinates": [-93.2650108, 44.977753]}, "type": "Feature", "properties": {"category": "capitalized", "NAME": "Minneapolis-St. Paul-Bloomington, MN-WI Metro Area", "state": "MN-WI", "state1": "WI", "state0": "MN", "GEOID": 33460}, "id": "36a10718583393fda12002cc856ec9ea"}, {"geometry": {"type": "Point", "coordinates": [-120.5058987, 46.6020711]}, "type": "Feature", "properties": {"category": "opportunity", "state": "WA", "state0": "WA", "GEOID": 49420, "NAME": "Yakima, WA Metro Area"}, "id": "36ca4f6c45d1e6497e7ab7c52aeb4fd4"}, {"geometry": {"type": "Point", "coordinates": ["-81.2223195", "37.2698395"]}, "type": "Feature", "properties": {"category": "opportunity", "NAME": "Bluefield, WV-VA Micro Area", "state": "WV-VA", "state1": "VA", "state0": "WV", "GEOID": 14140}, "id": "374371b2bb10b6bc6bbd6ad9325c9689"}, {"geometry": {"type": "Point", "coordinates": [-81.655651, 30.3321838]}, "type": "Feature", "properties": {"category": "capitalized", "state": "FL", "state0": "FL", "GEOID": 27260, "NAME": "Jacksonville, FL Metro Area"}, "id": "37c3b3e93e1b677c1f02bf50347d0c52"}, {"geometry": {"type": "Point", "coordinates": [-88.019826, 44.519159]}, "type": "Feature", "properties": {"category": "growth", "state": "WI", "state0": "WI", "GEOID": 24580, "NAME": "Green Bay, WI Metro Area"}, "id": "3904d6c219158f90225dea2a77aaa4af"}, {"geometry": {"type": "Point", "coordinates": ["-80.2440518", "36.0998131"]}, "type": "Feature", "properties": {"category": "capitalized", "state": "NC", "state0": "NC", "GEOID": 49180, "NAME": "Winston-Salem, NC Metro Area"}, "id": "39701693c06d8f2dfce89c914c534ef5"}, {"geometry": {"type": "Point", "coordinates": ["-81.9748429", "33.4709714"]}, "type": "Feature", "properties": {"category": "investment", "NAME": "Augusta-Richmond County, GA-SC Metro Area", "state": "GA-SC", "state1": "SC", "state0": "GA", "GEOID": 12260}, "id": "3a544ef04b3b7aa8933ca37327d593ac"}, {"geometry": {"type": "Point", "coordinates": [-75.9179738, 42.0986867]}, "type": "Feature", "properties": {"category": "capitalized", "state": "NY", "state0": "NY", "GEOID": 13780, "NAME": "Binghamton, NY Metro Area"}, "id": "3abb3a67df26c9020028ef6a31a3f289"}, {"geometry": {"type": "Point", "coordinates": [-91.2395807, 43.8013556]}, "type": "Feature", "properties": {"category": "capitalized", "NAME": "La Crosse-Onalaska, WI-MN Metro Area", "state": "WI-MN", "state1": "MN", "state0": "WI", "GEOID": 29100}, "id": "3abb8bdd276de9f4b7c2f37ef110332d"}, {"geometry": {"type": "Point", "coordinates": [-111.2833449, 47.4941836]}, "type": "Feature", "properties": {"category": "opportunity", "state": "MT", "state0": "MT", "GEOID": 24500, "NAME": "Great Falls, MT Metro Area"}, "id": "3b753808da88f5527c26b188a66cedc1"}, {"geometry": {"type": "Point", "coordinates": [-104.8213634, 38.8338816]}, "type": "Feature", "properties": {"category": "capitalized", "state": "CO", "state0": "CO", "GEOID": 17820, "NAME": "Colorado Springs, CO Metro Area"}, "id": "3c226beaa4f6cfeda3385a4b9303de7f"}, {"geometry": {"type": "Point", "coordinates": ["-84.4016963", "42.2465036"]}, "type": "Feature", "properties": {"category": "investment", "state": "MI", "state0": "MI", "GEOID": 27100, "NAME": "Jackson, MI Metro Area"}, "id": "3c29028a9fa32450abf36408b6112869"}, {"geometry": {"type": "Point", "coordinates": ["-81.6372111", "29.6487882"]}, "type": "Feature", "properties": {"category": "investment", "state": "FL", "state0": "FL", "GEOID": 37260, "NAME": "Palatka, FL Micro Area"}, "id": "3c9e310599d33f06941ac8248b783d79"}, {"geometry": {"type": "Point", "coordinates": [-95.992775, 36.1539816]}, "type": "Feature", "properties": {"category": "investment", "state": "OK", "state0": "OK", "GEOID": 46140, "NAME": "Tulsa, OK Metro Area"}, "id": "3cc922ff3529edf14144a52008dd9ff4"}, {"geometry": {"type": "Point", "coordinates": [-95.5507771, 30.7235263]}, "type": "Feature", "properties": {"category": "investment", "state": "TX", "state0": "TX", "GEOID": 26660, "NAME": "Huntsville, TX Micro Area"}, "id": "3cf0c79845017c123601fedf93d05c0e"}, {"geometry": {"type": "Point", "coordinates": [-111.8338359, 41.7369803]}, "type": "Feature", "properties": {"category": "capitalized", "NAME": "Logan, UT-ID Metro Area", "state": "UT-ID", "state1": "ID", "state0": "UT", "GEOID": 30860}, "id": "3d580c70d05dc6baf1af22386d7bcc0a"}, {"geometry": {"type": "Point", "coordinates": ["-93.268827", "44.2949637"]}, "type": "Feature", "properties": {"category": "opportunity", "state": "MN", "state0": "MN", "GEOID": 22060, "NAME": "Faribault-Northfield, MN Micro Area"}, "id": "3e22bc451db3b065e337188b29a9e6e7"}, {"geometry": {"type": "Point", "coordinates": [-99.4803241, 27.5305671]}, "type": "Feature", "properties": {"category": "opportunity", "state": "TX", "state0": "TX", "GEOID": 29700, "NAME": "Laredo, TX Metro Area"}, "id": "3f4d66ec0525f69a60c15a99590ee179"}, {"geometry": {"type": "Point", "coordinates": [-92.1004852, 46.7866719]}, "type": "Feature", "properties": {"category": "investment", "NAME": "Duluth, MN-WI Metro Area", "state": "MN-WI", "state1": "WI", "state0": "MN", "GEOID": 20260}, "id": "3f4ff888f1c696291387a43f78dd1ed7"}, {"geometry": {"type": "Point", "coordinates": ["-87.396433", "46.5434914"]}, "type": "Feature", "properties": {"category": "growth", "state": "MI", "state0": "MI", "GEOID": 32100, "NAME": "Marquette, MI Micro Area"}, "id": "3f55135208cc45e3af59c944b77ce806"}, {"geometry": {"type": "Point", "coordinates": [-87.1111676, 37.7719074]}, "type": "Feature", "properties": {"category": "investment", "state": "KY", "state0": "KY", "GEOID": 36980, "NAME": "Owensboro, KY Metro Area"}, "id": "3fb887b40d7dbd13a2f294bfa169c782"}, {"geometry": {"type": "Point", "coordinates": [-119.1770516, 34.1975048]}, "type": "Feature", "properties": {"category": "capitalized", "state": "CA", "state0": "CA", "GEOID": 37100, "NAME": "Oxnard-Thousand Oaks-Ventura, CA Metro Area"}, "id": "402e84feee951fa791a73cf75eabd9d3"}, {"geometry": {"type": "Point", "coordinates": [-81.3444573, 35.7344538]}, "type": "Feature", "properties": {"category": "opportunity", "state": "NC", "state0": "NC", "GEOID": 25860, "NAME": "Hickory-Lenoir-Morganton, NC Metro Area"}, "id": "40a7af70ad61bd74987f24684fbc4a73"}, {"geometry": {"type": "Point", "coordinates": ["-83.8240663", "34.2978794"]}, "type": "Feature", "properties": {"category": "opportunity", "state": "GA", "state0": "GA", "GEOID": 23580, "NAME": "Gainesville, GA Metro Area"}, "id": "41d2e95c0fed8a39d647b3ffbcb965dc"}, {"geometry": {"type": "Point", "coordinates": ["-80.8556476", "33.4918203"]}, "type": "Feature", "properties": {"category": "investment", "state": "SC", "state0": "SC", "GEOID": 36700, "NAME": "Orangeburg, SC Micro Area"}, "id": "421370a890bde9cfe4aa0702c7bc4068"}, {"geometry": {"type": "Point", "coordinates": [-123.0867536, 44.0520691]}, "type": "Feature", "properties": {"category": "growth", "state": "OR", "state0": "OR", "GEOID": 21660, "NAME": "Eugene, OR Metro Area"}, "id": "42562e813abf18efb28aa4d3b534975c"}, {"geometry": {"type": "Point", "coordinates": ["-78.1652404", "39.1852184"]}, "type": "Feature", "properties": {"category": "investment", "NAME": "Winchester, VA-WV Metro Area", "state": "VA-WV", "state1": "WV", "state0": "VA", "GEOID": 49020}, "id": "42bc7164c17e3c5a49ae2490d6fec478"}, {"geometry": {"type": "Point", "coordinates": ["-81.7832912", "32.4490141"]}, "type": "Feature", "properties": {"category": "investment", "state": "GA", "state0": "GA", "GEOID": 44340, "NAME": "Statesboro, GA Micro Area"}, "id": "439d7af825f1ec1172c8d5a0a7146ea7"}, {"geometry": {"type": "Point", "coordinates": [-98.3959291, 34.6035669]}, "type": "Feature", "properties": {"category": "investment", "state": "OK", "state0": "OK", "GEOID": 30020, "NAME": "Lawton, OK Metro Area"}, "id": "43eb9c95b7164b00a98a7f53c652a9ab"}, {"geometry": {"type": "Point", "coordinates": [-91.1403196, 30.4582829]}, "type": "Feature", "properties": {"category": "capitalized", "state": "LA", "state0": "LA", "GEOID": 12940, "NAME": "Baton Rouge, LA Metro Area"}, "id": "4562d4e89af1832ec86f88ad115b6137"}, {"geometry": {"type": "Point", "coordinates": [-86.9833417, 34.6059253]}, "type": "Feature", "properties": {"category": "investment", "state": "AL", "state0": "AL", "GEOID": 19460, "NAME": "Decatur, AL Metro Area"}, "id": "4685c36c6ef94faa0a2dfb53f01fbbf1"}, {"geometry": {"type": "Point", "coordinates": ["-122.9614303", "46.7204489"]}, "type": "Feature", "properties": {"category": "investment", "state": "WA", "state0": "WA", "GEOID": 16500, "NAME": "Centralia, WA Micro Area"}, "id": "478382c7a6d063914ca716bd187c43e9"}, {"geometry": {"type": "Point", "coordinates": ["-76.4968019", "42.4396039"]}, "type": "Feature", "properties": {"category": "capitalized", "state": "NY", "state0": "NY", "GEOID": 27060, "NAME": "Ithaca, NY Metro Area"}, "id": "47bf0b1874246506d7eb5d49b9fae098"}, {"geometry": {"type": "Point", "coordinates": [-96.3344068, 30.627977]}, "type": "Feature", "properties": {"category": "opportunity", "state": "TX", "state0": "TX", "GEOID": 17780, "NAME": "College Station-Bryan, TX Metro Area"}, "id": "47d95f22503644c958a65ce90a28e4b8"}, {"geometry": {"type": "Point", "coordinates": ["-77.0543408", "42.1435257"]}, "type": "Feature", "properties": {"category": "investment", "state": "NY", "state0": "NY", "GEOID": 18500, "NAME": "Corning, NY Micro Area"}, "id": "48b5c45ea4483177c9026817ce4db8ba"}, {"geometry": {"type": "Point", "coordinates": [-75.1652215, 39.9525839]}, "type": "Feature", "properties": {"category": "capitalized", "NAME": "Philadelphia-Camden-Wilmington, PA-NJ-DE-MD Metro Area", "state": "PA-NJ-DE-MD", "state3": "MD", "state2": "DE", "state1": "NJ", "state0": "PA", "GEOID": 37980}, "id": "48bb15f8abdcc76520997a4f70f37844"}, {"geometry": {"type": "Point", "coordinates": ["-80.3470091", "41.0036719"]}, "type": "Feature", "properties": {"category": "opportunity", "state": "PA", "state0": "PA", "GEOID": 35260, "NAME": "New Castle, PA Micro Area"}, "id": "48d9eebe5883e6fdb61168cca2eee15d"}, {"geometry": {"type": "Point", "coordinates": [-89.6501481, 39.7817213]}, "type": "Feature", "properties": {"category": "capitalized", "state": "IL", "state0": "IL", "GEOID": 44100, "NAME": "Springfield, IL Metro Area"}, "id": "4939a07b75f64e954633ab66f377fa86"}, {"geometry": {"type": "Point", "coordinates": [-121.4943996, 38.5815719]}, "type": "Feature", "properties": {"category": "capitalized", "state": "CA", "state0": "CA", "GEOID": 40900, "NAME": "Sacramento--Roseville--Arden-Arcade, CA Metro Area"}, "id": "49fa5bfe568cbcd8ad386ba6573b527f"}, {"geometry": {"type": "Point", "coordinates": [-89.5181476, 37.3058839]}, "type": "Feature", "properties": {"category": "investment", "NAME": "Cape Girardeau, MO-IL Metro Area", "state": "MO-IL", "state1": "IL", "state0": "MO", "GEOID": 16020}, "id": "4a22110603e90d552d41adb282c77ea4"}, {"geometry": {"type": "Point", "coordinates": ["-86.8950297", "41.7075394"]}, "type": "Feature", "properties": {"category": "opportunity", "state": "IN", "state0": "IN", "GEOID": 33140, "NAME": "Michigan City-La Porte, IN Metro Area"}, "id": "4aa13bb8eb0847bd2d6c9aef3aff76e3"}, {"geometry": {"type": "Point", "coordinates": [-114.6276916, 32.6926512]}, "type": "Feature", "properties": {"category": "investment", "state": "AZ", "state0": "AZ", "GEOID": 49740, "NAME": "Yuma, AZ Metro Area"}, "id": "4af6d360f5c256b0d1212728ee57e77f"}, {"geometry": {"type": "Point", "coordinates": ["-110.0298327", "34.2542084"]}, "type": "Feature", "properties": {"category": "investment", "state": "AZ", "state0": "AZ", "GEOID": 43320, "NAME": "Show Low, AZ Micro Area"}, "id": "4b07301ff193cd2af2027ddb9ae68af6"}, {"geometry": {"type": "Point", "coordinates": ["-75.176665811068", "41.0036462"]}, "type": "Feature", "properties": {"category": "capitalized", "state": "PA", "state0": "PA", "GEOID": 20700, "NAME": "East Stroudsburg, PA Metro Area"}, "id": "4b1e9d8aee3b9c6169cfe7f41fa96e1d"}, {"geometry": {"type": "Point", "coordinates": ["-78.76003", "41.119228"]}, "type": "Feature", "properties": {"category": "investment", "state": "PA", "state0": "PA", "GEOID": 20180, "NAME": "DuBois, PA Micro Area"}, "id": "4b58173786e2ce8ae2d4c275081c9e25"}, {"geometry": {"type": "Point", "coordinates": [-87.4139092, 39.4667034]}, "type": "Feature", "properties": {"category": "investment", "state": "IN", "state0": "IN", "GEOID": 45460, "NAME": "Terre Haute, IN Metro Area"}, "id": "4b88f2ba84adb425ca9ac0642e66ad8a"}, {"geometry": {"type": "Point", "coordinates": [-82.5514869, 35.5950581]}, "type": "Feature", "properties": {"category": "investment", "state": "NC", "state0": "NC", "GEOID": 11700, "NAME": "Asheville, NC Metro Area"}, "id": "4b9994e6d93a7b06039b694092454046"}, {"geometry": {"type": "Point", "coordinates": ["-94.7288558", "31.3386242"]}, "type": "Feature", "properties": {"category": "growth", "state": "TX", "state0": "TX", "GEOID": 31260, "NAME": "Lufkin, TX Micro Area"}, "id": "4c14111aad87cddbaea3d80d1089c66c"}, {"geometry": {"type": "Point", "coordinates": [-89.6301221, 44.9591352]}, "type": "Feature", "properties": {"category": "investment", "state": "WI", "state0": "WI", "GEOID": 48140, "NAME": "Wausau, WI Metro Area"}, "id": "4c878984d495da7d7a288bd2922732a2"}, {"geometry": {"type": "Point", "coordinates": [-97.0035982, 28.8052674]}, "type": "Feature", "properties": {"category": "opportunity", "state": "TX", "state0": "TX", "GEOID": 47020, "NAME": "Victoria, TX Metro Area"}, "id": "4c974bf77c9a7f74b189ace772fe502c"}, {"geometry": {"type": "Point", "coordinates": [-72.0759105, 41.5242649]}, "type": "Feature", "properties": {"category": "capitalized", "state": "CT", "state0": "CT", "GEOID": 35980, "NAME": "Norwich-New London, CT Metro Area"}, "id": "4cee63a434588eb4f4bb691fa508fa39"}, {"geometry": {"type": "Point", "coordinates": [-110.926479, 32.2217429]}, "type": "Feature", "properties": {"category": "growth", "state": "AZ", "state0": "AZ", "GEOID": 46060, "NAME": "Tucson, AZ Metro Area"}, "id": "4d6c86be825fbde0492170a48170a611"}, {"geometry": {"type": "Point", "coordinates": [-104.6091409, 38.2544472]}, "type": "Feature", "properties": {"category": "opportunity", "state": "CO", "state0": "CO", "GEOID": 39380, "NAME": "Pueblo, CO Metro Area"}, "id": "4d8c99decffd5b90a6e85684afce2934"}, {"geometry": {"type": "Point", "coordinates": [-85.3904888, 31.2232313]}, "type": "Feature", "properties": {"category": "investment", "state": "AL", "state0": "AL", "GEOID": 20020, "NAME": "Dothan, AL Metro Area"}, "id": "4df35cd58e8c51c438fd2d849a7b3611"}, {"geometry": {"type": "Point", "coordinates": ["-86.8435802", "34.1748408"]}, "type": "Feature", "properties": {"category": "investment", "state": "AL", "state0": "AL", "GEOID": 18980, "NAME": "Cullman, AL Micro Area"}, "id": "4e548cba0ec01edb4cf492cec99eaa2f"}, {"geometry": {"type": "Point", "coordinates": [-85.7584557, 38.2526647]}, "type": "Feature", "properties": {"category": "capitalized", "NAME": "Louisville/Jefferson County, KY-IN Metro Area", "state": "KY-IN", "state1": "IN", "state0": "KY", "GEOID": 31140}, "id": "4eaa55070978e0eb6fd63ca7470cba6e"}, {"geometry": {"type": "Point", "coordinates": ["-78.6089028", "35.3062743"]}, "type": "Feature", "properties": {"category": "capitalized", "state": "NC", "state0": "NC", "GEOID": 20380, "NAME": "Dunn, NC Micro Area"}, "id": "4f2ddc84982e84764e953fd879c47dbd"}, {"geometry": {"type": "Point", "coordinates": ["-87.6304614", "40.125222"]}, "type": "Feature", "properties": {"category": "investment", "state": "IL", "state0": "IL", "GEOID": 19180, "NAME": "Danville, IL Metro Area"}, "id": "4f54b258575e7f0514796e1f16981c34"}, {"geometry": {"type": "Point", "coordinates": [-89.0928155, 30.3674198]}, "type": "Feature", "properties": {"category": "investment", "state": "MS", "state0": "MS", "GEOID": 25060, "NAME": "Gulfport-Biloxi-Pascagoula, MS Metro Area"}, "id": "4f5c51dab7f76ef2b0d71b22a71b5827"}, {"geometry": {"type": "Point", "coordinates": [-121.6169108, 39.1404477]}, "type": "Feature", "properties": {"category": "investment", "state": "CA", "state0": "CA", "GEOID": 49700, "NAME": "Yuba City, CA Metro Area"}, "id": "4f5d7796f86f5b295d057713aa90c865"}, {"geometry": {"type": "Point", "coordinates": [-76.3055144, 40.0378755]}, "type": "Feature", "properties": {"category": "capitalized", "state": "PA", "state0": "PA", "GEOID": 29540, "NAME": "Lancaster, PA Metro Area"}, "id": "5059d2d3c6b2e9f37850fff9914d0f70"}, {"geometry": {"type": "Point", "coordinates": [-96.4003069, 42.4999942]}, "type": "Feature", "properties": {"category": "investment", "NAME": "Sioux City, IA-NE-SD Metro Area", "state": "IA-NE-SD", "state2": "SD", "state1": "NE", "state0": "IA", "GEOID": 43580}, "id": "51ad84ac6d759b5d6480c82a405fe37a"}, {"geometry": {"type": "Point", "coordinates": [-96.7898034, 46.8771863]}, "type": "Feature", "properties": {"category": "capitalized", "NAME": "Fargo, ND-MN Metro Area", "state": "ND-MN", "state1": "MN", "state0": "ND", "GEOID": 22020}, "id": "525a7b089d3c5184d66ad3847f67864a"}, {"geometry": {"type": "Point", "coordinates": ["-84.7668495", "43.597646"]}, "type": "Feature", "properties": {"category": "investment", "state": "MI", "state0": "MI", "GEOID": 34380, "NAME": "Mount Pleasant, MI Micro Area"}, "id": "52fbdfea6c6e05e35a42c171f992f64f"}, {"geometry": {"type": "Point", "coordinates": ["-76.453816", "41.0041213"]}, "type": "Feature", "properties": {"category": "investment", "state": "PA", "state0": "PA", "GEOID": 14100, "NAME": "Bloomsburg-Berwick, PA Metro Area"}, "id": "543c30df15a8b7566806a2ff5352e851"}, {"geometry": {"type": "Point", "coordinates": ["-83.3968252", "41.9145037"]}, "type": "Feature", "properties": {"category": "capitalized", "state": "MI", "state0": "MI", "GEOID": 33780, "NAME": "Monroe, MI Metro Area"}, "id": "54a06f000d1c8025dd2056c9913d5142"}, {"geometry": {"type": "Point", "coordinates": [-80.3414693, 33.9204354]}, "type": "Feature", "properties": {"category": "opportunity", "state": "SC", "state0": "SC", "GEOID": 44940, "NAME": "Sumter, SC Metro Area"}, "id": "54a528d9b0e6fe8a94175deea99fd1f2"}, {"geometry": {"type": "Point", "coordinates": [-84.2807329, 30.4382559]}, "type": "Feature", "properties": {"category": "growth", "state": "FL", "state0": "FL", "GEOID": 45220, "NAME": "Tallahassee, FL Metro Area"}, "id": "54b731ef657d31ec507171cfe3640d54"}, {"geometry": {"type": "Point", "coordinates": [-74.0059413, 40.7127837]}, "type": "Feature", "properties": {"category": "capitalized", "NAME": "New York-Newark-Jersey City, NY-NJ-PA Metro Area", "state": "NY-NJ-PA", "state2": "PA", "state1": "NJ", "state0": "NY", "GEOID": 35620}, "id": "54efcd532af95ea0a124079f62f7dc05"}, {"geometry": {"type": "Point", "coordinates": [-82.445154, 38.4192496]}, "type": "Feature", "properties": {"category": "investment", "NAME": "Huntington-Ashland, WV-KY-OH Metro Area", "state": "WV-KY-OH", "state2": "OH", "state1": "KY", "state0": "WV", "GEOID": 26580}, "id": "55140539d23972b57abecb530af3d6d0"}, {"geometry": {"type": "Point", "coordinates": ["-79.0780831", "40.008411"]}, "type": "Feature", "properties": {"category": "investment", "state": "PA", "state0": "PA", "GEOID": 43740, "NAME": "Somerset, PA Micro Area"}, "id": "552dd3557d8f7cfe51dfa2546713ef7b"}, {"geometry": {"type": "Point", "coordinates": [-120.9968782, 37.6390972]}, "type": "Feature", "properties": {"category": "capitalized", "state": "CA", "state0": "CA", "GEOID": 33700, "NAME": "Modesto, CA Metro Area"}, "id": "55a007f21674f2798865fbd86342aaa4"}, {"geometry": {"type": "Point", "coordinates": ["-82.1012479", "39.3289242"]}, "type": "Feature", "properties": {"category": "investment", "state": "OH", "state0": "OH", "GEOID": 11900, "NAME": "Athens, OH Micro Area"}, "id": "567cfa1b1360429068fb31e131846b96"}, {"geometry": {"type": "Point", "coordinates": ["-87.8611531", "41.1200325"]}, "type": "Feature", "properties": {"category": "capitalized", "state": "IL", "state0": "IL", "GEOID": 28100, "NAME": "Kankakee, IL Metro Area"}, "id": "5694adaf23909b5f873ee3ac48ad1fad"}, {"geometry": {"type": "Point", "coordinates": [-89.5889864, 40.6936488]}, "type": "Feature", "properties": {"category": "investment", "state": "IL", "state0": "IL", "GEOID": 37900, "NAME": "Peoria, IL Metro Area"}, "id": "571de6c3ac1ef86c4d5ae91a8a5745a0"}, {"geometry": {"type": "Point", "coordinates": [-122.4194155, 37.7749295]}, "type": "Feature", "properties": {"category": "capitalized", "state": "CA", "state0": "CA", "GEOID": 41860, "NAME": "San Francisco-Oakland-Hayward, CA Metro Area"}, "id": "585c878347c86675bec37b99f9363d55"}, {"geometry": {"type": "Point", "coordinates": ["-68.7778138", "44.8011821"]}, "type": "Feature", "properties": {"category": "growth", "state": "ME", "state0": "ME", "GEOID": 12620, "NAME": "Bangor, ME Metro Area"}, "id": "58e815090938bc79c291ec844340de29"}, {"geometry": {"type": "Point", "coordinates": ["-86.2094342", "35.3620235"]}, "type": "Feature", "properties": {"category": "opportunity", "state": "TN", "state0": "TN", "GEOID": 46100, "NAME": "Tullahoma-Manchester, TN Micro Area"}, "id": "5a2884e564e9d3cd930e9938bed61e93"}, {"geometry": {"type": "Point", "coordinates": ["-69.779663", "44.310583"]}, "type": "Feature", "properties": {"category": "capitalized", "state": "ME", "state0": "ME", "GEOID": 12300, "NAME": "Augusta-Waterville, ME Micro Area"}, "id": "5a3288c54db03dafe1da1fd9471800a8"}, {"geometry": {"type": "Point", "coordinates": [-119.8138027, 39.5296329]}, "type": "Feature", "properties": {"category": "capitalized", "state": "NV", "state0": "NV", "GEOID": 39900, "NAME": "Reno, NV Metro Area"}, "id": "5ac9a766f2c229de9a2440d6291d9faa"}, {"geometry": {"type": "Point", "coordinates": [-95.3010624, 32.3512601]}, "type": "Feature", "properties": {"category": "investment", "state": "TX", "state0": "TX", "GEOID": 46340, "NAME": "Tyler, TX Metro Area"}, "id": "5b08abf844533796fa8676009e64462e"}, {"geometry": {"type": "Point", "coordinates": [-108.2186856, 36.7280583]}, "type": "Feature", "properties": {"category": "investment", "state": "NM", "state0": "NM", "GEOID": 22140, "NAME": "Farmington, NM Metro Area"}, "id": "5b60c9840b9c8d99d8bc8da3f819fcb1"}, {"geometry": {"type": "Point", "coordinates": [-122.3916754, 40.5865396]}, "type": "Feature", "properties": {"category": "investment", "state": "CA", "state0": "CA", "GEOID": 39820, "NAME": "Redding, CA Metro Area"}, "id": "5bb3191f4c00a70d5221b4ad6a47d7b3"}, {"geometry": {"type": "Point", "coordinates": [-120.4829677, 37.3021632]}, "type": "Feature", "properties": {"category": "investment", "state": "CA", "state0": "CA", "GEOID": 32900, "NAME": "Merced, CA Metro Area"}, "id": "5bc7189ed3d7d507b1088de3248f8009"}, {"geometry": {"type": "Point", "coordinates": [-97.4974838, 25.9017472]}, "type": "Feature", "properties": {"category": "opportunity", "state": "TX", "state0": "TX", "GEOID": 15180, "NAME": "Brownsville-Harlingen, TX Metro Area"}, "id": "5c56aaad231a3e3a0d47837f26f39a33"}, {"geometry": {"type": "Point", "coordinates": [-75.232664, 43.100903]}, "type": "Feature", "properties": {"category": "capitalized", "state": "NY", "state0": "NY", "GEOID": 46540, "NAME": "Utica-Rome, NY Metro Area"}, "id": "5c7833ce918b05f4a281243c1f6af511"}, {"geometry": {"type": "Point", "coordinates": [-117.4260466, 47.6587802]}, "type": "Feature", "properties": {"category": "capitalized", "state": "WA", "state0": "WA", "GEOID": 44060, "NAME": "Spokane-Spokane Valley, WA Metro Area"}, "id": "5cbf4c2b0865d549d389751e44cd916d"}, {"geometry": {"type": "Point", "coordinates": ["-78.8900409", "33.6956461"]}, "type": "Feature", "properties": {"category": "capitalized", "NAME": "Myrtle Beach-Conway-North Myrtle Beach, SC-NC Metro Area", "state": "SC-NC", "state1": "NC", "state0": "SC", "GEOID": 34820}, "id": "5dcad904854b1712ef7bf9bf94b328b9"}, {"geometry": {"type": "Point", "coordinates": [-86.2483921, 43.2341813]}, "type": "Feature", "properties": {"category": "opportunity", "state": "MI", "state0": "MI", "GEOID": 34740, "NAME": "Muskegon, MI Metro Area"}, "id": "5e385ba58afe0a3f6b5bb7c4fe1adfe9"}, {"geometry": {"type": "Point", "coordinates": [-104.990251, 39.7392358]}, "type": "Feature", "properties": {"category": "capitalized", "state": "CO", "state0": "CO", "GEOID": 19740, "NAME": "Denver-Aurora-Lakewood, CO Metro Area"}, "id": "5eb4fc4e8ff9d950b7444ba49624ad80"}, {"geometry": {"type": "Point", "coordinates": [-78.8689155, 38.4495688]}, "type": "Feature", "properties": {"category": "investment", "state": "VA", "state0": "VA", "GEOID": 25500, "NAME": "Harrisonburg, VA Metro Area"}, "id": "5fd53df7f8dc7ee09749f044f95be143"}, {"geometry": {"type": "Point", "coordinates": [-115.1398296, 36.1699412]}, "type": "Feature", "properties": {"category": "capitalized", "state": "NV", "state0": "NV", "GEOID": 29820, "NAME": "Las Vegas-Henderson-Paradise, NV Metro Area"}, "id": "606f95afe68b99aa682a312e90040d51"}, {"geometry": {"type": "Point", "coordinates": [-95.6890185, 39.0558235]}, "type": "Feature", "properties": {"category": "opportunity", "state": "KS", "state0": "KS", "GEOID": 45820, "NAME": "Topeka, KS Metro Area"}, "id": "618a6ec623379fea5f265b9aff88055d"}, {"geometry": {"type": "Point", "coordinates": ["-76.2247697", "36.2956836"]}, "type": "Feature", "properties": {"category": "opportunity", "state": "NC", "state0": "NC", "GEOID": 21020, "NAME": "Elizabeth City, NC Micro Area"}, "id": "61d4a98f4641a0aad8025dd7024c1e66"}, {"geometry": {"type": "Point", "coordinates": ["-82.1617883", "34.1954001"]}, "type": "Feature", "properties": {"category": "investment", "state": "SC", "state0": "SC", "GEOID": 24940, "NAME": "Greenwood, SC Micro Area"}, "id": "62a0576a4fb7cb8c727b4767d84d984e"}, {"geometry": {"type": "Point", "coordinates": [-90.0489801, 35.1495343]}, "type": "Feature", "properties": {"category": "opportunity", "NAME": "Memphis, TN-MS-AR Metro Area", "state": "TN-MS-AR", "state2": "AR", "state1": "MS", "state0": "TN", "GEOID": 32820}, "id": "6385e5589e9d14973acee693a7222f50"}, {"geometry": {"type": "Point", "coordinates": ["-82.5759329", "28.8035939"]}, "type": "Feature", "properties": {"category": "capitalized", "state": "FL", "state0": "FL", "GEOID": 26140, "NAME": "Homosassa Springs, FL Metro Area"}, "id": "639087feee386bdd8f48b0f4326af6d7"}, {"geometry": {"type": "Point", "coordinates": [-111.8910474, 40.7607793]}, "type": "Feature", "properties": {"category": "capitalized", "state": "UT", "state0": "UT", "GEOID": 41620, "NAME": "Salt Lake City, UT Metro Area"}, "id": "63b594777ee143f8a2c2ced0cc916302"}, {"geometry": {"type": "Point", "coordinates": ["-123.815722", "46.975371"]}, "type": "Feature", "properties": {"category": "capitalized", "state": "WA", "state0": "WA", "GEOID": 10140, "NAME": "Aberdeen, WA Micro Area"}, "id": "645cc6373dec0e37903fc9295f63f541"}, {"geometry": {"type": "Point", "coordinates": [-90.1994042, 38.6270025]}, "type": "Feature", "properties": {"category": "capitalized", "NAME": "St. Louis, MO-IL Metro Area", "state": "MO-IL", "state1": "IL", "state0": "MO", "GEOID": 41180}, "id": "6462cd7bdfc40224a6ddfdbe45482511"}, {"geometry": {"type": "Point", "coordinates": [-75.9268747, 40.3356483]}, "type": "Feature", "properties": {"category": "capitalized", "state": "PA", "state0": "PA", "GEOID": 39740, "NAME": "Reading, PA Metro Area"}, "id": "65fcd72692d693e8cdfee7a46f688e85"}, {"geometry": {"type": "Point", "coordinates": [-87.7828523, 42.7261309]}, "type": "Feature", "properties": {"category": "capitalized", "state": "WI", "state0": "WI", "GEOID": 39540, "NAME": "Racine, WI Metro Area"}, "id": "66afd39dd95c41e6835c15bf46a5ff03"}, {"geometry": {"type": "Point", "coordinates": [-80.5886646, 28.0344621]}, "type": "Feature", "properties": {"category": "capitalized", "state": "FL", "state0": "FL", "GEOID": 37340, "NAME": "Palm Bay-Melbourne-Titusville, FL Metro Area"}, "id": "66b9d17a63a269814ba631a584a94073"}, {"geometry": {"type": "Point", "coordinates": [-123.1059282, 44.6365107]}, "type": "Feature", "properties": {"category": "capitalized", "state": "OR", "state0": "OR", "GEOID": 10540, "NAME": "Albany, OR Metro Area"}, "id": "6728500d0cb6e1d7201dc09f99ff02cc"}, {"geometry": {"type": "Point", "coordinates": ["-82.9824019", "39.3331197"]}, "type": "Feature", "properties": {"category": "investment", "state": "OH", "state0": "OH", "GEOID": 17060, "NAME": "Chillicothe, OH Micro Area"}, "id": "67b74ac220e9f1d9dbb0decdc51fcc22"}, {"geometry": {"type": "Point", "coordinates": ["-78.7624714", "39.6528509"]}, "type": "Feature", "properties": {"category": "growth", "NAME": "Cumberland, MD-WV Metro Area", "state": "MD-WV", "state1": "WV", "state0": "MD", "GEOID": 19060}, "id": "68fa67562ffc07ad71171b012c02fedf"}, {"geometry": {"type": "Point", "coordinates": [-119.7674034, 39.1637984]}, "type": "Feature", "properties": {"category": "capitalized", "state": "NV", "state0": "NV", "GEOID": 16180, "NAME": "Carson City, NV Metro Area"}, "id": "6999e4cd98d7dd4417e5ae3415fdb299"}, {"geometry": {"type": "Point", "coordinates": [-88.9548001, 39.8403147]}, "type": "Feature", "properties": {"category": "capitalized", "state": "IL", "state0": "IL", "GEOID": 19500, "NAME": "Decatur, IL Metro Area"}, "id": "69c3eee01c33412208314a1d2e890cc9"}, {"geometry": {"type": "Point", "coordinates": [-70.3002024, 41.7003208]}, "type": "Feature", "properties": {"category": "capitalized", "state": "MA", "state0": "MA", "GEOID": 12700, "NAME": "Barnstable Town, MA Metro Area"}, "id": "69e75da30d34d9c471209ca0b1e76716"}, {"geometry": {"type": "Point", "coordinates": [-77.6109219, 43.16103]}, "type": "Feature", "properties": {"category": "capitalized", "state": "NY", "state0": "NY", "GEOID": 40380, "NAME": "Rochester, NY Metro Area"}, "id": "6a623dc17364913ed2e36068ffb49486"}, {"geometry": {"type": "Point", "coordinates": ["-76.8077338", "42.0897965"]}, "type": "Feature", "properties": {"category": "capitalized", "state": "NY", "state0": "NY", "GEOID": 21300, "NAME": "Elmira, NY Metro Area"}, "id": "6ae12d5dec8499f8d6dfa57646ad6062"}, {"geometry": {"type": "Point", "coordinates": [-77.9155395, 35.7212689]}, "type": "Feature", "properties": {"category": "opportunity", "state": "NC", "state0": "NC", "GEOID": 48980, "NAME": "Wilson, NC Micro Area"}, "id": "6c1d7102ba5ec3e1ad2532a468075e19"}, {"geometry": {"type": "Point", "coordinates": ["-85.6591442", "40.5583739"]}, "type": "Feature", "properties": {"category": "investment", "state": "IN", "state0": "IN", "GEOID": 31980, "NAME": "Marion, IN Micro Area"}, "id": "6c62f8a6445d20a8df1be6e97264f5a2"}, {"geometry": {"type": "Point", "coordinates": ["-114.3167117", "48.2022563"]}, "type": "Feature", "properties": {"category": "growth", "state": "MT", "state0": "MT", "GEOID": 28060, "NAME": "Kalispell, MT Micro Area"}, "id": "6c97ed0a5ca0dba3466c7d87c785d294"}, {"geometry": {"type": "Point", "coordinates": [-93.9993996, 44.1635775]}, "type": "Feature", "properties": {"category": "capitalized", "state": "MN", "state0": "MN", "GEOID": 31860, "NAME": "Mankato-North Mankato, MN Metro Area"}, "id": "6d159792cfc317b16126f886015e4a1c"}, {"geometry": {"type": "Point", "coordinates": [-84.1916069, 39.7589478]}, "type": "Feature", "properties": {"category": "capitalized", "state": "OH", "state0": "OH", "GEOID": 19380, "NAME": "Dayton, OH Metro Area"}, "id": "6ed37d9eaa9c7f83bc34eca3f6b7ef20"}, {"geometry": {"type": "Point", "coordinates": ["-76.5672029", "42.9320202"]}, "type": "Feature", "properties": {"category": "investment", "state": "NY", "state0": "NY", "GEOID": 12180, "NAME": "Auburn, NY Micro Area"}, "id": "6f4a5c2ea792124182cbd806307d9e4f"}, {"geometry": {"type": "Point", "coordinates": ["-84.8898521", "39.8286897"]}, "type": "Feature", "properties": {"category": "investment", "state": "IN", "state0": "IN", "GEOID": 39980, "NAME": "Richmond, IN Micro Area"}, "id": "6feaa00664ce598c612afb6751d38f68"}, {"geometry": {"type": "Point", "coordinates": [-89.0939952, 42.2711311]}, "type": "Feature", "properties": {"category": "capitalized", "state": "IL", "state0": "IL", "GEOID": 40420, "NAME": "Rockford, IL Metro Area"}, "id": "6ff14ec1c273c1920470c56dee1be58a"}, {"geometry": {"type": "Point", "coordinates": ["-81.1475841", "36.1584651"]}, "type": "Feature", "properties": {"category": "opportunity", "state": "NC", "state0": "NC", "GEOID": 35900, "NAME": "North Wilkesboro, NC Micro Area"}, "id": "702a5dab5a5538c89796b932aca5fb45"}, {"geometry": {"type": "Point", "coordinates": ["-88.7286352", "43.1948481"]}, "type": "Feature", "properties": {"category": "investment", "state": "WI", "state0": "WI", "GEOID": 48020, "NAME": "Watertown-Fort Atkinson, WI Micro Area"}, "id": "70342a63249b83c73ac5615774c4e10e"}, {"geometry": {"type": "Point", "coordinates": ["-85.1646726", "34.257038"]}, "type": "Feature", "properties": {"category": "opportunity", "state": "GA", "state0": "GA", "GEOID": 40660, "NAME": "Rome, GA Metro Area"}, "id": "703efd836508f7d7eec0890bfe9a0058"}, {"geometry": {"type": "Point", "coordinates": [-112.4455344, 42.8713032]}, "type": "Feature", "properties": {"category": "capitalized", "state": "ID", "state0": "ID", "GEOID": 38540, "NAME": "Pocatello, ID Metro Area"}, "id": "719762123a54eea9d1f9541cde9c3574"}, {"geometry": {"type": "Point", "coordinates": ["-80.7209149", "40.0639616"]}, "type": "Feature", "properties": {"category": "investment", "NAME": "Wheeling, WV-OH Metro Area", "state": "WV-OH", "state1": "OH", "state0": "WV", "GEOID": 48540}, "id": "71e0b23fd3c43b900b416454d25c8531"}, {"geometry": {"type": "Point", "coordinates": [-75.5243682, 39.158168]}, "type": "Feature", "properties": {"category": "capitalized", "state": "DE", "state0": "DE", "GEOID": 20100, "NAME": "Dover, DE Metro Area"}, "id": "722ddfa7f73c818bf702581fb43c2111"}, {"geometry": {"type": "Point", "coordinates": ["-80.4706078", "27.816415"]}, "type": "Feature", "properties": {"category": "capitalized", "state": "FL", "state0": "FL", "GEOID": 42680, "NAME": "Sebastian-Vero Beach, FL Metro Area"}, "id": "7235e06725430b6a5dc02d704bda4034"}, {"geometry": {"type": "Point", "coordinates": ["-83.2948923", "36.2139814"]}, "type": "Feature", "properties": {"category": "investment", "state": "TN", "state0": "TN", "GEOID": 34100, "NAME": "Morristown, TN Metro Area"}, "id": "725b583697830603939b83905ad5435a"}, {"geometry": {"type": "Point", "coordinates": ["-76.1953701", "40.6851324"]}, "type": "Feature", "properties": {"category": "investment", "state": "PA", "state0": "PA", "GEOID": 39060, "NAME": "Pottsville, PA Micro Area"}, "id": "725ee53b25f2c1986e1af0fc3331e02b"}, {"geometry": {"type": "Point", "coordinates": [-102.3676431, 31.8456816]}, "type": "Feature", "properties": {"category": "investment", "state": "TX", "state0": "TX", "GEOID": 36220, "NAME": "Odessa, TX Metro Area"}, "id": "73fdcf885620e748f73ad58088eb88c6"}, {"geometry": {"type": "Point", "coordinates": [-92.0198427, 30.2240897]}, "type": "Feature", "properties": {"category": "investment", "state": "LA", "state0": "LA", "GEOID": 29180, "NAME": "Lafayette, LA Metro Area"}, "id": "7425578e38864d7b4218d8592a970aaf"}, {"geometry": {"type": "Point", "coordinates": [-91.6656232, 41.9778795]}, "type": "Feature", "properties": {"category": "capitalized", "state": "IA", "state0": "IA", "GEOID": 16300, "NAME": "Cedar Rapids, IA Metro Area"}, "id": "746e1a25e638c1a58a92e60170391167"}, {"geometry": {"type": "Point", "coordinates": ["-85.7196893", "34.4442547"]}, "type": "Feature", "properties": {"category": "opportunity", "state": "AL", "state0": "AL", "GEOID": 22840, "NAME": "Fort Payne, AL Micro Area"}, "id": "74728dcf4dd80299d71ef5c09c699cb5"}, {"geometry": {"type": "Point", "coordinates": [-119.6456844, 36.3274502]}, "type": "Feature", "properties": {"category": "investment", "state": "CA", "state0": "CA", "GEOID": 25260, "NAME": "Hanford-Corcoran, CA Metro Area"}, "id": "74caa88f9082639d7b24e67dd690594f"}, {"geometry": {"type": "Point", "coordinates": [-78.6381787, 35.7795897]}, "type": "Feature", "properties": {"category": "capitalized", "state": "NC", "state0": "NC", "GEOID": 39580, "NAME": "Raleigh, NC Metro Area"}, "id": "74d926ceecaab6cabb372f72c1e564ca"}, {"geometry": {"type": "Point", "coordinates": ["-76.7260436", "34.7229391"]}, "type": "Feature", "properties": {"category": "capitalized", "state": "NC", "state0": "NC", "GEOID": 33980, "NAME": "Morehead City, NC Micro Area"}, "id": "74ffac03c0ac173876736829e2e3d930"}, {"geometry": {"type": "Point", "coordinates": [-72.589811, 42.1014831]}, "type": "Feature", "properties": {"category": "capitalized", "state": "MA", "state0": "MA", "GEOID": 44140, "NAME": "Springfield, MA Metro Area"}, "id": "750a433ab3ba094ef0fb053ac062216a"}, {"geometry": {"type": "Point", "coordinates": [-86.5263857, 39.165325]}, "type": "Feature", "properties": {"category": "growth", "state": "IN", "state0": "IN", "GEOID": 14020, "NAME": "Bloomington, IN Metro Area"}, "id": "754058a94b874d3eaa84ab7736239bbd"}, {"geometry": {"type": "Point", "coordinates": [-122.3320708, 47.6062095]}, "type": "Feature", "properties": {"category": "capitalized", "state": "WA", "state0": "WA", "GEOID": 42660, "NAME": "Seattle-Tacoma-Bellevue, WA Metro Area"}, "id": "76af4f521be19094a42c8c8d15f537b8"}, {"geometry": {"type": "Point", "coordinates": [-106.7636538, 32.3199396]}, "type": "Feature", "properties": {"category": "investment", "state": "NM", "state0": "NM", "GEOID": 29740, "NAME": "Las Cruces, NM Metro Area"}, "id": "76c60a48cd3b9a8ed6bba5a854b0b3ea"}, {"geometry": {"type": "Point", "coordinates": ["-84.0832646", "37.1289771"]}, "type": "Feature", "properties": {"category": "investment", "state": "KY", "state0": "KY", "GEOID": 30940, "NAME": "London, KY Micro Area"}, "id": "76e57843208c197f9a1901b914fdaf7f"}, {"geometry": {"type": "Point", "coordinates": ["-88.7033859", "34.2576067"]}, "type": "Feature", "properties": {"category": "investment", "state": "MS", "state0": "MS", "GEOID": 46180, "NAME": "Tupelo, MS Micro Area"}, "id": "779f5eb9bc8b3dcf568382c3fea1f073"}, {"geometry": {"type": "Point", "coordinates": [-89.0187222, 42.6827885]}, "type": "Feature", "properties": {"category": "opportunity", "state": "WI", "state0": "WI", "GEOID": 27500, "NAME": "Janesville-Beloit, WI Metro Area"}, "id": "77dd937b0b57502488d019ddaa813fbf"}, {"geometry": {"type": "Point", "coordinates": [-104.7091322, 40.4233142]}, "type": "Feature", "properties": {"category": "capitalized", "state": "CO", "state0": "CO", "GEOID": 24540, "NAME": "Greeley, CO Metro Area"}, "id": "7864d2a9e6c17f2dabc75bb94cdfaeef"}, {"geometry": {"type": "Point", "coordinates": [-75.4901833, 40.6084305]}, "type": "Feature", "properties": {"category": "capitalized", "NAME": "Allentown-Bethlehem-Easton, PA-NJ Metro Area", "state": "PA-NJ", "state1": "NJ", "state0": "PA", "GEOID": 10900}, "id": "786b4a63fa8f766a603bbe107aadceb5"}, {"geometry": {"type": "Point", "coordinates": [-122.0307963, 36.9741171]}, "type": "Feature", "properties": {"category": "capitalized", "state": "CA", "state0": "CA", "GEOID": 42100, "NAME": "Santa Cruz-Watsonville, CA Metro Area"}, "id": "791a7bf3e58d0bd341afd9036bef47d7"}, {"geometry": {"type": "Point", "coordinates": ["-84.2946539", "37.7478572"]}, "type": "Feature", "properties": {"category": "opportunity", "state": "KY", "state0": "KY", "GEOID": 40080, "NAME": "Richmond-Berea, KY Micro Area"}, "id": "7a3eb6ff15f45c028d5285ad426d03c2"}, {"geometry": {"type": "Point", "coordinates": [-114.4608711, 42.5629668]}, "type": "Feature", "properties": {"category": "investment", "state": "ID", "state0": "ID", "GEOID": 46300, "NAME": "Twin Falls, ID Micro Area"}, "id": "7a6b4d619622cda2a9d8e0a3e2277914"}, {"geometry": {"type": "Point", "coordinates": ["-90.4217895", "37.7808846"]}, "type": "Feature", "properties": {"category": "investment", "state": "MO", "state0": "MO", "GEOID": 22100, "NAME": "Farmington, MO Micro Area"}, "id": "7c4a9b661f57f6817fab6bd66057661f"}, {"geometry": {"type": "Point", "coordinates": [-79.9310512, 32.7764749]}, "type": "Feature", "properties": {"category": "capitalized", "state": "SC", "state0": "SC", "GEOID": 16700, "NAME": "Charleston-North Charleston, SC Metro Area"}, "id": "7e8b7da6a44c440062a3a600c54842b3"}, {"geometry": {"type": "Point", "coordinates": ["-81.9383187", "40.7991766"]}, "type": "Feature", "properties": {"category": "growth", "state": "OH", "state0": "OH", "GEOID": 49300, "NAME": "Wooster, OH Micro Area"}, "id": "7f74b1cbf4f23f2ce1ee2a9ba3807088"}, {"geometry": {"type": "Point", "coordinates": [-81.3792365, 28.5383355]}, "type": "Feature", "properties": {"category": "capitalized", "state": "FL", "state0": "FL", "GEOID": 36740, "NAME": "Orlando-Kissimmee-Sanford, FL Metro Area"}, "id": "7fa780ab8683b5fc331a7c5ebad0a319"}, {"geometry": {"type": "Point", "coordinates": [-73.212072, 44.4758825]}, "type": "Feature", "properties": {"category": "growth", "state": "VT", "state0": "VT", "GEOID": 15540, "NAME": "Burlington-South Burlington, VT Metro Area"}, "id": "807689c481c22469adbc26a5712d858e"}, {"geometry": {"type": "Point", "coordinates": [-121.6555013, 36.6777372]}, "type": "Feature", "properties": {"category": "investment", "state": "CA", "state0": "CA", "GEOID": 41500, "NAME": "Salinas, CA Metro Area"}, "id": "80ae18924792328a9229389514f81ea8"}, {"geometry": {"type": "Point", "coordinates": ["-77.6548026", "36.4610756"]}, "type": "Feature", "properties": {"category": "investment", "state": "NC", "state0": "NC", "GEOID": 40260, "NAME": "Roanoke Rapids, NC Micro Area"}, "id": "815cfb6f584ddf1bd8483c5337232a8e"}, {"geometry": {"type": "Point", "coordinates": [-122.7140548, 38.440429]}, "type": "Feature", "properties": {"category": "capitalized", "state": "CA", "state0": "CA", "GEOID": 42220, "NAME": "Santa Rosa, CA Metro Area"}, "id": "815f6ba482f8a607e7291d878dc709eb"}, {"geometry": {"type": "Point", "coordinates": [-82.5154471, 40.75839]}, "type": "Feature", "properties": {"category": "investment", "state": "OH", "state0": "OH", "GEOID": 31900, "NAME": "Mansfield, OH Metro Area"}, "id": "81b6057a0594e347f5df4a971f3c1a84"}, {"geometry": {"type": "Point", "coordinates": [-83.2784851, 30.8327022]}, "type": "Feature", "properties": {"category": "investment", "state": "GA", "state0": "GA", "GEOID": 46660, "NAME": "Valdosta, GA Metro Area"}, "id": "81d3e9393ab7c583ba18420c8b36ed7a"}, {"geometry": {"type": "Point", "coordinates": ["-93.217133", "36.6440399"]}, "type": "Feature", "properties": {"category": "investment", "state": "MO", "state0": "MO", "GEOID": 14700, "NAME": "Branson, MO Micro Area"}, "id": "81e473b06858c4a10b7e6d3f560d9539"}, {"geometry": {"type": "Point", "coordinates": [-120.0607176, 36.9613356]}, "type": "Feature", "properties": {"category": "investment", "state": "CA", "state0": "CA", "GEOID": 31460, "NAME": "Madera, CA Metro Area"}, "id": "82544cbe1f4f96651af17545ba1048b8"}, {"geometry": {"type": "Point", "coordinates": ["-74.0023702", "41.9287812"]}, "type": "Feature", "properties": {"category": "capitalized", "state": "NY", "state0": "NY", "GEOID": 28740, "NAME": "Kingston, NY Metro Area"}, "id": "82a80969f950dac4056f2210ca3db4ea"}, {"geometry": {"type": "Point", "coordinates": ["-79.9559437", "39.6296809"]}, "type": "Feature", "properties": {"category": "growth", "state": "WV", "state0": "WV", "GEOID": 34060, "NAME": "Morgantown, WV Metro Area"}, "id": "83528f20d95565906658f4b6f9becbb6"}, {"geometry": {"type": "Point", "coordinates": [-114.3224548, 34.483901]}, "type": "Feature", "properties": {"category": "investment", "state": "AZ", "state0": "AZ", "GEOID": 29420, "NAME": "Lake Havasu City-Kingman, AZ Metro Area"}, "id": "83b6261df7c85271df47fe26cd0542fc"}, {"geometry": {"type": "Point", "coordinates": [-108.5506486, 39.0638705]}, "type": "Feature", "properties": {"category": "capitalized", "state": "CO", "state0": "CO", "GEOID": 24300, "NAME": "Grand Junction, CO Metro Area"}, "id": "8424290f671f61de73d2b3337ed23cf3"}, {"geometry": {"type": "Point", "coordinates": ["-120.1832533", "39.327962"]}, "type": "Feature", "properties": {"category": "growth", "state": "CA", "state0": "CA", "GEOID": 46020, "NAME": "Truckee-Grass Valley, CA Micro Area"}, "id": "8428dfb6d05a6c50d5ce3f58ce7bb76f"}, {"geometry": {"type": "Point", "coordinates": [-81.5190053, 41.0814447]}, "type": "Feature", "properties": {"category": "capitalized", "state": "OH", "state0": "OH", "GEOID": 10420, "NAME": "Akron, OH Metro Area"}, "id": "855ade64fd987730019a020a7886dbf4"}, {"geometry": {"type": "Point", "coordinates": [-122.4781473, 48.74908]}, "type": "Feature", "properties": {"category": "capitalized", "state": "WA", "state0": "WA", "GEOID": 13380, "NAME": "Bellingham, WA Metro Area"}, "id": "865e68b71c0152bb6cf026f9fa7fd64b"}, {"geometry": {"type": "Point", "coordinates": [-82.4571776, 27.950575]}, "type": "Feature", "properties": {"category": "capitalized", "state": "FL", "state0": "FL", "GEOID": 45300, "NAME": "Tampa-St. Petersburg-Clearwater, FL Metro Area"}, "id": "8683c244f8af19527ebf1d19a41b0865"}, {"geometry": {"type": "Point", "coordinates": [-85.9213796, 39.2014404]}, "type": "Feature", "properties": {"category": "growth", "state": "IN", "state0": "IN", "GEOID": 18020, "NAME": "Columbus, IN Metro Area"}, "id": "8799f7f55f18debe1930d8a907e73958"}, {"geometry": {"type": "Point", "coordinates": [-79.7625625, 34.1954331]}, "type": "Feature", "properties": {"category": "investment", "state": "SC", "state0": "SC", "GEOID": 22500, "NAME": "Florence, SC Metro Area"}, "id": "87b74ec7bc7a3e8cb650a8dd8a78b4f9"}, {"geometry": {"type": "Point", "coordinates": [-75.6624122, 41.408969]}, "type": "Feature", "properties": {"category": "investment", "state": "PA", "state0": "PA", "GEOID": 42540, "NAME": "Scranton--Wilkes-Barre--Hazleton, PA Metro Area"}, "id": "87d941854b2b4b1d4759b0845e4039f6"}, {"geometry": {"type": "Point", "coordinates": [-83.9207392, 35.9606384]}, "type": "Feature", "properties": {"category": "capitalized", "state": "TN", "state0": "TN", "GEOID": 28940, "NAME": "Knoxville, TN Metro Area"}, "id": "897a959d6233ed3b74d3021ea71b0789"}, {"geometry": {"type": "Point", "coordinates": ["-79.072557", "38.1495947"]}, "type": "Feature", "properties": {"category": "investment", "state": "VA", "state0": "VA", "GEOID": 44420, "NAME": "Staunton-Waynesboro, VA Metro Area"}, "id": "8aa1941fa6c2126014314d94d801a019"}, {"geometry": {"type": "Point", "coordinates": [-81.0348144, 34.0007104]}, "type": "Feature", "properties": {"category": "growth", "state": "SC", "state0": "SC", "GEOID": 17900, "NAME": "Columbia, SC Metro Area"}, "id": "8af14e96acd876be00c8c92a55aa9fa2"}, {"geometry": {"type": "Point", "coordinates": [-94.513281, 37.0842271]}, "type": "Feature", "properties": {"category": "investment", "state": "MO", "state0": "MO", "GEOID": 27900, "NAME": "Joplin, MO Metro Area"}, "id": "8b30e1bbdfcf0138a4ffaa69471d182b"}, {"geometry": {"type": "Point", "coordinates": [-77.9447102, 34.2257255]}, "type": "Feature", "properties": {"category": "capitalized", "state": "NC", "state0": "NC", "GEOID": 48900, "NAME": "Wilmington, NC Metro Area"}, "id": "8c67a1b974e0b71e2633c83878a50a8a"}, {"geometry": {"type": "Point", "coordinates": [-85.9766671, 41.6819935]}, "type": "Feature", "properties": {"category": "investment", "state": "IN", "state0": "IN", "GEOID": 21140, "NAME": "Elkhart-Goshen, IN Metro Area"}, "id": "8c7bb36cb591d64688eb672774ab102a"}, {"geometry": {"type": "Point", "coordinates": ["-122.9344623", "46.1377048"]}, "type": "Feature", "properties": {"category": "opportunity", "state": "WA", "state0": "WA", "GEOID": 31020, "NAME": "Longview, WA Metro Area"}, "id": "8d74989c33d9987911f1e411a7a697bd"}, {"geometry": {"type": "Point", "coordinates": [-83.0457538, 42.331427]}, "type": "Feature", "properties": {"category": "capitalized", "state": "MI", "state0": "MI", "GEOID": 19820, "NAME": "Detroit-Warren-Dearborn, MI Metro Area"}, "id": "8d8a3e72c5b3961b4f2337d7d089551f"}, {"geometry": {"type": "Point", "coordinates": ["-82.9527288", "34.6865321"]}, "type": "Feature", "properties": {"category": "investment", "state": "SC", "state0": "SC", "GEOID": 42860, "NAME": "Seneca, SC Micro Area"}, "id": "8d98f21e19c0303f0b29a9bc67743acc"}, {"geometry": {"type": "Point", "coordinates": [-119.2920585, 36.3302284]}, "type": "Feature", "properties": {"category": "investment", "state": "CA", "state0": "CA", "GEOID": 47300, "NAME": "Visalia-Porterville, CA Metro Area"}, "id": "8e06cfdf77b83145c0ffa854a536db2a"}, {"geometry": {"type": "Point", "coordinates": ["-86.1090828", "42.7876022"]}, "type": "Feature", "properties": {"category": "investment", "state": "MI", "state0": "MI", "GEOID": 26090, "NAME": "Holland, MI Micro Area"}, "id": "8e305a0df5638949cac0e731a4d9a1fd"}, {"geometry": {"type": "Point", "coordinates": [-85.6602058, 30.1588129]}, "type": "Feature", "properties": {"category": "capitalized", "state": "FL", "state0": "FL", "GEOID": 37460, "NAME": "Panama City, FL Metro Area"}, "id": "8ea5de0803202310f6685f9b7a327a2b"}, {"geometry": {"type": "Point", "coordinates": [-112.4685025, 34.5400242]}, "type": "Feature", "properties": {"category": "investment", "state": "AZ", "state0": "AZ", "GEOID": 39140, "NAME": "Prescott, AZ Metro Area"}, "id": "8ed944dab4b506a096282a28abe177f2"}, {"geometry": {"type": "Point", "coordinates": [-97.0583681, 36.1156071]}, "type": "Feature", "properties": {"category": "investment", "state": "OK", "state0": "OK", "GEOID": 44660, "NAME": "Stillwater, OK Micro Area"}, "id": "8f3a981ad4c209f34364687d4a63d647"}, {"geometry": {"type": "Point", "coordinates": ["-107.3255001", "39.5507448"]}, "type": "Feature", "properties": {"category": "opportunity", "state": "CO", "state0": "CO", "GEOID": 24060, "NAME": "Glenwood Springs, CO Micro Area"}, "id": "8ff1864863de86642090359f6cd44f9e"}, {"geometry": {"type": "Point", "coordinates": [-116.7804664, 47.6776832]}, "type": "Feature", "properties": {"category": "growth", "state": "ID", "state0": "ID", "GEOID": 17660, "NAME": "Coeur d'Alene, ID Metro Area"}, "id": "911c215ae261cf0cd5c666d5ecb3599f"}, {"geometry": {"type": "Point", "coordinates": ["-81.8651028", "35.3340108"]}, "type": "Feature", "properties": {"category": "investment", "state": "NC", "state0": "NC", "GEOID": 22580, "NAME": "Forest City, NC Micro Area"}, "id": "9131e074cbdd322e66e7b288cc75e5fe"}, {"geometry": {"type": "Point", "coordinates": [-77.4360481, 37.5407246]}, "type": "Feature", "properties": {"category": "growth", "state": "VA", "state0": "VA", "GEOID": 40060, "NAME": "Richmond, VA Metro Area"}, "id": "9182bfb2617e31d7b99a8080d4101fb2"}, {"geometry": {"type": "Point", "coordinates": ["-86.5705084", "30.7621326"]}, "type": "Feature", "properties": {"category": "growth", "state": "FL", "state0": "FL", "GEOID": 18880, "NAME": "Crestview-Fort Walton Beach-Destin, FL Metro Area"}, "id": "92bf8202c720c15e31481441db435592"}, {"geometry": {"type": "Point", "coordinates": ["-120.3103494", "47.4234599"]}, "type": "Feature", "properties": {"category": "capitalized", "state": "WA", "state0": "WA", "GEOID": 48300, "NAME": "Wenatchee, WA Metro Area"}, "id": "92dbb5be1174dc1379869a9178216086"}, {"geometry": {"type": "Point", "coordinates": ["-123.3272489", "42.4393707"]}, "type": "Feature", "properties": {"category": "investment", "state": "OR", "state0": "OR", "GEOID": 24420, "NAME": "Grants Pass, OR Metro Area"}, "id": "936bff0bd168ddb7e4f7a960375b16f4"}, {"geometry": {"type": "Point", "coordinates": ["-88.837329", "43.4577692"]}, "type": "Feature", "properties": {"category": "investment", "state": "WI", "state0": "WI", "GEOID": 13180, "NAME": "Beaver Dam, WI Micro Area"}, "id": "93ee1742c181c6f73965c5c7a4d05201"}, {"geometry": {"type": "Point", "coordinates": [-91.4984941, 44.811349]}, "type": "Feature", "properties": {"category": "growth", "state": "WI", "state0": "WI", "GEOID": 20740, "NAME": "Eau Claire, WI Metro Area"}, "id": "941723b0047b998da0a7390ea3a2a59f"}, {"geometry": {"type": "Point", "coordinates": [-120.4357191, 34.9530337]}, "type": "Feature", "properties": {"category": "capitalized", "state": "CA", "state0": "CA", "GEOID": 42200, "NAME": "Santa Maria-Santa Barbara, CA Metro Area"}, "id": "94505d0101a305a4d63433f6a2e28e95"}, {"geometry": {"type": "Point", "coordinates": [-111.0429339, 45.6769979]}, "type": "Feature", "properties": {"category": "growth", "state": "MT", "state0": "MT", "GEOID": 14580, "NAME": "Bozeman, MT Micro Area"}, "id": "94a58d503af941a8f190529f54f81f3a"}, {"geometry": {"type": "Point", "coordinates": [-86.158068, 39.768403]}, "type": "Feature", "properties": {"category": "capitalized", "state": "IN", "state0": "IN", "GEOID": 26900, "NAME": "Indianapolis-Carmel-Anderson, IN Metro Area"}, "id": "9537a7135bb27d5d41f99ddf2f18dda4"}, {"geometry": {"type": "Point", "coordinates": [-91.4098726, 39.9356016]}, "type": "Feature", "properties": {"category": "investment", "NAME": "Quincy, IL-MO Micro Area", "state": "IL-MO", "state1": "MO", "state0": "IL", "GEOID": 39500}, "id": "9562f17862019ef79107c355d6874779"}, {"geometry": {"type": "Point", "coordinates": [-87.5691735, 33.2098407]}, "type": "Feature", "properties": {"category": "investment", "state": "AL", "state0": "AL", "GEOID": 46220, "NAME": "Tuscaloosa, AL Metro Area"}, "id": "95aa1b97f859f1ca7fdca25737179de4"}, {"geometry": {"type": "Point", "coordinates": [-80.1917902, 25.7616798]}, "type": "Feature", "properties": {"category": "capitalized", "state": "FL", "state0": "FL", "GEOID": 33100, "NAME": "Miami-Fort Lauderdale-West Palm Beach, FL Metro Area"}, "id": "95bd90a602a31c1db0b69c97a06a6dce"}, {"geometry": {"type": "Point", "coordinates": [-80.085059, 42.1292241]}, "type": "Feature", "properties": {"category": "capitalized", "state": "PA", "state0": "PA", "GEOID": 21500, "NAME": "Erie, PA Metro Area"}, "id": "96d15a31b083e3308ee45867fc00c73d"}, {"geometry": {"type": "Point", "coordinates": ["-95.8555207", "32.2048735"]}, "type": "Feature", "properties": {"category": "investment", "state": "TX", "state0": "TX", "GEOID": 11980, "NAME": "Athens, TX Micro Area"}, "id": "97125dc5363ef629b7807ba018781e4e"}, {"geometry": {"type": "Point", "coordinates": ["-78.9219698", "40.3267407"]}, "type": "Feature", "properties": {"category": "investment", "state": "PA", "state0": "PA", "GEOID": 27780, "NAME": "Johnstown, PA Metro Area"}, "id": "978350a6200e24770f4ac0d64cce8a8f"}, {"geometry": {"type": "Point", "coordinates": [-111.9738304, 41.223]}, "type": "Feature", "properties": {"category": "capitalized", "state": "UT", "state0": "UT", "GEOID": 36260, "NAME": "Ogden-Clearfield, UT Metro Area"}, "id": "98bdc84eb6a3dfe1424abfa7b779aaed"}, {"geometry": {"type": "Point", "coordinates": [-82.3248262, 29.6516344]}, "type": "Feature", "properties": {"category": "growth", "state": "FL", "state0": "FL", "GEOID": 23540, "NAME": "Gainesville, FL Metro Area"}, "id": "992f263996b1601ed475470f2551825d"}, {"geometry": {"type": "Point", "coordinates": [-87.2169149, 30.421309]}, "type": "Feature", "properties": {"category": "capitalized", "state": "FL", "state0": "FL", "GEOID": 37860, "NAME": "Pensacola-Ferry Pass-Brent, FL Metro Area"}, "id": "99c00f8dd3630b5f66ce33a6aea9887c"}, {"geometry": {"type": "Point", "coordinates": [-119.1372338, 46.2112458]}, "type": "Feature", "properties": {"category": "capitalized", "state": "WA", "state0": "WA", "GEOID": 28420, "NAME": "Kennewick-Richland, WA Metro Area"}, "id": "9a60d83a680c3e1f02267906edbaae3a"}, {"geometry": {"type": "Point", "coordinates": [-88.4153847, 44.2619309]}, "type": "Feature", "properties": {"category": "capitalized", "state": "WI", "state0": "WI", "GEOID": 11540, "NAME": "Appleton, WI Metro Area"}, "id": "9a76c86f2f26cd9d9f517163d1f9cf11"}, {"geometry": {"type": "Point", "coordinates": [-85.4807825, 32.6098566]}, "type": "Feature", "properties": {"category": "capitalized", "state": "AL", "state0": "AL", "GEOID": 12220, "NAME": "Auburn-Opelika, AL Metro Area"}, "id": "9b8879c09af12402b30a1e0bb04dc873"}, {"geometry": {"type": "Point", "coordinates": [-79.1422464, 37.4137536]}, "type": "Feature", "properties": {"category": "investment", "state": "VA", "state0": "VA", "GEOID": 31340, "NAME": "Lynchburg, VA Metro Area"}, "id": "9dfdce65325a5790ff6bc3253ffb7d8a"}, {"geometry": {"type": "Point", "coordinates": ["-89.574111", "44.5229223"]}, "type": "Feature", "properties": {"category": "growth", "state": "WI", "state0": "WI", "GEOID": 44620, "NAME": "Stevens Point, WI Micro Area"}, "id": "9e478792f6ce5c53d90ece91adc1a2c3"}, {"geometry": {"type": "Point", "coordinates": [-96.6088805, 33.6356618]}, "type": "Feature", "properties": {"category": "opportunity", "state": "TX", "state0": "TX", "GEOID": 43300, "NAME": "Sherman-Denison, TX Metro Area"}, "id": "9e8b2a3547b2458f6415612ae0329b86"}, {"geometry": {"type": "Point", "coordinates": ["-88.845436", "41.3516628"]}, "type": "Feature", "properties": {"category": "investment", "state": "IL", "state0": "IL", "GEOID": 36860, "NAME": "Ottawa-Peru, IL Micro Area"}, "id": "9f6d424a5e2c54a1e7a70ad9cf10c2b0"}, {"geometry": {"type": "Point", "coordinates": [-98.3420118, 40.9263957]}, "type": "Feature", "properties": {"category": "investment", "state": "NE", "state0": "NE", "GEOID": 24260, "NAME": "Grand Island, NE Metro Area"}, "id": "a0d4207dd811b0f2d597c6cab4e71c3f"}, {"geometry": {"type": "Point", "coordinates": [-103.2310149, 44.0805434]}, "type": "Feature", "properties": {"category": "growth", "state": "SD", "state0": "SD", "GEOID": 39660, "NAME": "Rapid City, SD Metro Area"}, "id": "a0fd2b6d443a559e9dbc59cfd6f44182"}, {"geometry": {"type": "Point", "coordinates": ["-88.6000478", "37.0833893"]}, "type": "Feature", "properties": {"category": "investment", "NAME": "Paducah, KY-IL Micro Area", "state": "KY-IL", "state1": "IL", "state0": "KY", "GEOID": 37140}, "id": "a24b312e19590bd8c3c01b97e4c0e1c2"}, {"geometry": {"type": "Point", "coordinates": [-90.704279, 35.8422967]}, "type": "Feature", "properties": {"category": "investment", "state": "AR", "state0": "AR", "GEOID": 27860, "NAME": "Jonesboro, AR Metro Area"}, "id": "a311e83016487fc83286460f962d8aa5"}, {"geometry": {"type": "Point", "coordinates": [-95.3698028, 29.7604267]}, "type": "Feature", "properties": {"category": "capitalized", "state": "TX", "state0": "TX", "GEOID": 26420, "NAME": "Houston-The Woodlands-Sugar Land, TX Metro Area"}, "id": "a3157d0d40f978a88473592c94526834"}, {"geometry": {"type": "Point", "coordinates": [-121.2907796, 37.9577016]}, "type": "Feature", "properties": {"category": "capitalized", "state": "CA", "state0": "CA", "GEOID": 44700, "NAME": "Stockton-Lodi, CA Metro Area"}, "id": "a3858850addd1bde8ecb2f72dbcdf19e"}, {"geometry": {"type": "Point", "coordinates": ["-81.9533443", "28.9468504"]}, "type": "Feature", "properties": {"category": "capitalized", "state": "FL", "state0": "FL", "GEOID": 45540, "NAME": "The Villages, FL Metro Area"}, "id": "a4692548d15003060084f1f02088d952"}, {"geometry": {"type": "Point", "coordinates": ["-74.5746001", "39.2776156"]}, "type": "Feature", "properties": {"category": "capitalized", "state": "NJ", "state0": "NJ", "GEOID": 36140, "NAME": "Ocean City, NJ Metro Area"}, "id": "a4890be08b75f4a20ccf20e6613f478b"}, {"geometry": {"type": "Point", "coordinates": [-116.2146068, 43.6187102]}, "type": "Feature", "properties": {"category": "capitalized", "state": "ID", "state0": "ID", "GEOID": 14260, "NAME": "Boise City, ID Metro Area"}, "id": "a53310993b67cb61c8eb05c0accecffb"}, {"geometry": {"type": "Point", "coordinates": [-72.6850932, 41.7637111]}, "type": "Feature", "properties": {"category": "capitalized", "state": "CT", "state0": "CT", "GEOID": 25540, "NAME": "Hartford-West Hartford-East Hartford, CT Metro Area"}, "id": "a587b5c7510a3ca8534035cb1fc27848"}, {"geometry": {"type": "Point", "coordinates": ["-80.5895167", "40.4189566"]}, "type": "Feature", "properties": {"category": "investment", "NAME": "Weirton-Steubenville, WV-OH Metro Area", "state": "WV-OH", "state1": "OH", "state0": "WV", "GEOID": 48260}, "id": "a6339b25b5d4a206915436481bd08949"}, {"geometry": {"type": "Point", "coordinates": [-82.2359254, 27.044224]}, "type": "Feature", "properties": {"category": "capitalized", "state": "FL", "state0": "FL", "GEOID": 35840, "NAME": "North Port-Sarasota-Bradenton, FL Metro Area"}, "id": "a74bedee76804a63b51cf721c860da29"}, {"geometry": {"type": "Point", "coordinates": [-85.1797142, 42.3211522]}, "type": "Feature", "properties": {"category": "investment", "state": "MI", "state0": "MI", "GEOID": 12980, "NAME": "Battle Creek, MI Metro Area"}, "id": "a75d4ad8d69950d322333d44f6a073f3"}, {"geometry": {"type": "Point", "coordinates": ["-88.7292679", "42.8336422"]}, "type": "Feature", "properties": {"category": "growth", "state": "WI", "state0": "WI", "GEOID": 48580, "NAME": "Whitewater-Elkhorn, WI Micro Area"}, "id": "a7a648615775378ec777bfcf114f00a8"}, {"geometry": {"type": "Point", "coordinates": [-121.8863286, 37.3382082]}, "type": "Feature", "properties": {"category": "capitalized", "state": "CA", "state0": "CA", "GEOID": 41940, "NAME": "San Jose-Sunnyvale-Santa Clara, CA Metro Area"}, "id": "a807abcd2b9373156bb717121d367c9e"}, {"geometry": {"type": "Point", "coordinates": [-79.9958864, 40.4406248]}, "type": "Feature", "properties": {"category": "capitalized", "state": "PA", "state0": "PA", "GEOID": 38300, "NAME": "Pittsburgh, PA Metro Area"}, "id": "a94aa6d76783f0121664c0be0e8b09d6"}, {"geometry": {"type": "Point", "coordinates": ["-87.9036047", "30.6035255"]}, "type": "Feature", "properties": {"category": "investment", "state": "AL", "state0": "AL", "GEOID": 19300, "NAME": "Daphne-Fairhope-Foley, AL Metro Area"}, "id": "a964b99eb004c1f48a66b84dda8e3035"}, {"geometry": {"type": "Point", "coordinates": [-97.7277959, 31.1171194]}, "type": "Feature", "properties": {"category": "growth", "state": "TX", "state0": "TX", "GEOID": 28660, "NAME": "Killeen-Temple, TX Metro Area"}, "id": "a984656f3ec85e65c3ed85a154da61ea"}, {"geometry": {"type": "Point", "coordinates": [-87.71453, 43.7508284]}, "type": "Feature", "properties": {"category": "capitalized", "state": "WI", "state0": "WI", "GEOID": 43100, "NAME": "Sheboygan, WI Metro Area"}, "id": "a9d07625b298858804766ca51625899b"}, {"geometry": {"type": "Point", "coordinates": [-94.6274636, 39.114053]}, "type": "Feature", "properties": {"category": "capitalized", "NAME": "Kansas City, MO-KS Metro Area", "state": "MO-KS", "state1": "KS", "state0": "MO", "GEOID": 28140}, "id": "aa36eb969cd2c83a60e83ea0670d78c9"}, {"geometry": {"type": "Point", "coordinates": [-112.0339645, 43.4916514]}, "type": "Feature", "properties": {"category": "capitalized", "state": "ID", "state0": "ID", "GEOID": 26820, "NAME": "Idaho Falls, ID Metro Area"}, "id": "aae88885773fa0d4c2409535998f59df"}, {"geometry": {"type": "Point", "coordinates": [-83.7430378, 42.2808256]}, "type": "Feature", "properties": {"category": "capitalized", "state": "MI", "state0": "MI", "GEOID": 11460, "NAME": "Ann Arbor, MI Metro Area"}, "id": "aaeda31631c5098e30eb72d4ff8d3e49"}, {"geometry": {"type": "Point", "coordinates": ["-119.2780771", "47.1301417"]}, "type": "Feature", "properties": {"category": "opportunity", "state": "WA", "state0": "WA", "GEOID": 34180, "NAME": "Moses Lake, WA Micro Area"}, "id": "ad2dab1c2ceae1f75ac8b3797302f7b3"}, {"geometry": {"type": "Point", "coordinates": [-76.1474244, 43.0481221]}, "type": "Feature", "properties": {"category": "capitalized", "state": "NY", "state0": "NY", "GEOID": 45060, "NAME": "Syracuse, NY Metro Area"}, "id": "ad8507ef0b193bf13672fe28c635275b"}, {"geometry": {"type": "Point", "coordinates": ["-79.8725386", "36.6915262"]}, "type": "Feature", "properties": {"category": "opportunity", "state": "VA", "state0": "VA", "GEOID": 32300, "NAME": "Martinsville, VA Micro Area"}, "id": "af044fd97ef65b56b3ef28ad9921d431"}, {"geometry": {"type": "Point", "coordinates": ["-81.5356463", "35.2923513"]}, "type": "Feature", "properties": {"category": "opportunity", "state": "NC", "state0": "NC", "GEOID": 43140, "NAME": "Shelby, NC Micro Area"}, "id": "b061dc110773b964317bbef050cebf44"}, {"geometry": {"type": "Point", "coordinates": [-104.8202462, 41.1399814]}, "type": "Feature", "properties": {"category": "growth", "state": "WY", "state0": "WY", "GEOID": 16940, "NAME": "Cheyenne, WY Metro Area"}, "id": "b0c765f176ef6313fefe7ffbf45e4f1b"}, {"geometry": {"type": "Point", "coordinates": [-90.0715323, 29.9510658]}, "type": "Feature", "properties": {"category": "opportunity", "state": "LA", "state0": "LA", "GEOID": 35380, "NAME": "New Orleans-Metairie, LA Metro Area"}, "id": "b16770f9cbc953797b1511c6c0415654"}, {"geometry": {"type": "Point", "coordinates": ["-77.2310908", "39.8309399"]}, "type": "Feature", "properties": {"category": "capitalized", "state": "PA", "state0": "PA", "GEOID": 23900, "NAME": "Gettysburg, PA Metro Area"}, "id": "b183c8cc6f66023bf4dc9842b984febb"}, {"geometry": {"type": "Point", "coordinates": [-122.8755949, 42.3265152]}, "type": "Feature", "properties": {"category": "growth", "state": "OR", "state0": "OR", "GEOID": 32780, "NAME": "Medford, OR Metro Area"}, "id": "b252f1f875a1a899d8adaaca5f78f2ea"}, {"geometry": {"type": "Point", "coordinates": [-79.7919754, 36.0726354]}, "type": "Feature", "properties": {"category": "opportunity", "state": "NC", "state0": "NC", "GEOID": 24660, "NAME": "Greensboro-High Point, NC Metro Area"}, "id": "b2dbc221f3e7d91b9b46f445cb28a37f"}, {"geometry": {"type": "Point", "coordinates": ["-81.5960354", "31.8477298"]}, "type": "Feature", "properties": {"category": "growth", "state": "GA", "state0": "GA", "GEOID": 25980, "NAME": "Hinesville, GA Metro Area"}, "id": "b3b53ea61efecbb995c4a1387b6a1402"}, {"geometry": {"type": "Point", "coordinates": ["-86.1058048", "33.4359416"]}, "type": "Feature", "properties": {"category": "investment", "state": "AL", "state0": "AL", "GEOID": 45180, "NAME": "Talladega-Sylacauga, AL Micro Area"}, "id": "b3f4f169675807b72e127597e2175cce"}, {"geometry": {"type": "Point", "coordinates": [-90.5776367, 41.5236437]}, "type": "Feature", "properties": {"category": "investment", "NAME": "Davenport-Moline-Rock Island, IA-IL Metro Area", "state": "IA-IL", "state1": "IL", "state0": "IA", "GEOID": 19340}, "id": "b4879c6d63736f8167244c9167a1b134"}, {"geometry": {"type": "Point", "coordinates": ["-124.1636729", "40.8020712"]}, "type": "Feature", "properties": {"category": "growth", "state": "CA", "state0": "CA", "GEOID": 21700, "NAME": "Eureka-Arcata-Fortuna, CA Micro Area"}, "id": "b491a5dcea66964cf95b5ea031e263e6"}, {"geometry": {"type": "Point", "coordinates": [-79.3950228, 36.5859718]}, "type": "Feature", "properties": {"category": "investment", "state": "VA", "state0": "VA", "GEOID": 19260, "NAME": "Danville, VA Micro Area"}, "id": "b55d0d2eda8535641ac8a88208632ab1"}, {"geometry": {"type": "Point", "coordinates": [-122.6329356, 47.5673202]}, "type": "Feature", "properties": {"category": "capitalized", "state": "WA", "state0": "WA", "GEOID": 14740, "NAME": "Bremerton-Silverdale, WA Metro Area"}, "id": "b78dbeb60826b3d10361d9d2318771bf"}, {"geometry": {"type": "Point", "coordinates": [-83.9508068, 43.4194699]}, "type": "Feature", "properties": {"category": "opportunity", "state": "MI", "state0": "MI", "GEOID": 40980, "NAME": "Saginaw, MI Metro Area"}, "id": "b80f88c5b725e4d200e2fdd0cc562fa1"}, {"geometry": {"type": "Point", "coordinates": [-80.6495194, 41.0997803]}, "type": "Feature", "properties": {"category": "capitalized", "NAME": "Youngstown-Warren-Boardman, OH-PA Metro Area", "state": "OH-PA", "state1": "PA", "state0": "OH", "GEOID": 49660}, "id": "b97458df5c540621bd43ff94d1b3e3e1"}, {"geometry": {"type": "Point", "coordinates": [-93.7501789, 32.5251516]}, "type": "Feature", "properties": {"category": "investment", "state": "LA", "state0": "LA", "GEOID": 43340, "NAME": "Shreveport-Bossier City, LA Metro Area"}, "id": "b9f51479b45a0ad5c2350331594abb1b"},