{"type":"FeatureCollection","features":[{"type":"Feature","properties":{"GEOID":30980,"NAME":"Longview, TX Metro Area","category":"investment","state":"TX","state0":"TX"},"geometry":{"type":"Point","coordinates":[-94.819897,32.364601]},"id":"005f90fd633e991cae447c58c3fcda21"},{"type":"Feature","properties":{"GEOID":31940,"NAME":"Marinette, WI-MI Micro Area","category":"investment","state":"WI-MI","state0":"WI","state1":"MI"},"geometry":{"type":"Point","coordinates":[-87.769216,45.435279]},"id":"00600cc6a65576957b0db085aba94ed9"},{"type":"Feature","properties":{"GEOID":30460,"NAME":"Lexington-Fayette, KY Metro Area","category":"capitalized","state":"KY","state0":"KY"},"geometry":{"type":"Point","coordinates":[-84.438545,38.102876]},"id":"011c45d9b83a9e1934ce55af4d6de9e2"},{"type":"Feature","properties":{"GEOID":10780,"NAME":"Alexandria, LA Metro Area","category":"investment","state":"LA","state0":"LA"},"geometry":{"type":"Point","coordinates":[-92.54688,31.325334]},"id":"0296663d213b935e3b3637c6200b5e4b"},{"type":"Feature","properties":{"GEOID":48620,"NAME":"Wichita, KS Metro Area","category":"growth","state":"KS","state0":"KS"},"geometry":{"type":"Point","coordinates":[-97.398832,37.629831]},"id":"035120f6fe3a51a7b27423d71cd1baba"},{"type":"Feature","properties":{"GEOID":33500,"NAME":"Minot, ND Micro Area","category":"growth","state":"ND","state0":"ND"},"geometry":{"type":"Point","coordinates":[-101.19801,48.320242]},"id":"0357d1c2e2ee59906a79d00aa54b80cc"},{"type":"Feature","properties":{"GEOID":27340,"NAME":"Jacksonville, NC Metro Area","category":"capitalized","state":"NC","state0":"NC"},"geometry":{"type":"Point","coordinates":[-77.499469,34.763109]},"id":"04eeec7b9ce6ee943786c3a68a6038fe"},{"type":"Feature","properties":{"GEOID":45780,"NAME":"Toledo, OH Metro Area","category":"capitalized","state":"OH","state0":"OH"},"geometry":{"type":"Point","coordinates":[-83.690777,41.544357]},"id":"04f4e39e3648104f23c4edfb54f1d16f"},{"type":"Feature","properties":{"GEOID":18260,"NAME":"Cookeville, TN Micro Area","category":"investment","state":"TN","state0":"TN"},"geometry":{"type":"Point","coordinates":[-85.468501,36.277251]},"id":"052c2a88ba87c49d46eeb547ef64026b"},{"type":"Feature","properties":{"GEOID":38060,"NAME":"Phoenix-Mesa-Scottsdale, AZ Metro Area","category":"growth","state":"AZ","state0":"AZ"},"geometry":{"type":"Point","coordinates":[-112.067862,33.185765]},"id":"05c442a65305cb612150d2a2abba5f54"},{"type":"Feature","properties":{"GEOID":31300,"NAME":"Lumberton, NC Micro Area","category":"investment","state":"NC","state0":"NC"},"geometry":{"type":"Point","coordinates":[-79.100881,34.63921]},"id":"0713cbab6517ce8cc7407a2ed1cc5c00"},{"type":"Feature","properties":{"GEOID":17420,"NAME":"Cleveland, TN Metro Area","category":"opportunity","state":"TN","state0":"TN"},"geometry":{"type":"Point","coordinates":[-84.655079,35.138117]},"id":"077aa9cc77136e53b1b321f91b5edec0"},{"type":"Feature","properties":{"GEOID":18580,"NAME":"Corpus Christi, TX Metro Area","category":"opportunity","state":"TX","state0":"TX"},"geometry":{"type":"Point","coordinates":[-97.401236,27.898931]},"id":"0787d811ce9c75e55bc3777a7c545e93"},{"type":"Feature","properties":{"GEOID":30140,"NAME":"Lebanon, PA Metro Area","category":"capitalized","state":"PA","state0":"PA"},"geometry":{"type":"Point","coordinates":[-76.46487,40.371559]},"id":"07b2f05a9964aa3828c38c50fc0799c8"},{"type":"Feature","properties":{"GEOID":14540,"NAME":"Bowling Green, KY Metro Area","category":"investment","state":"KY","state0":"KY"},"geometry":{"type":"Point","coordinates":[-86.397068,37.046821]},"id":"07b6203b187c225edc92cc211ac59c49"},{"type":"Feature","properties":{"GEOID":37020,"NAME":"Owosso, MI Micro Area","category":"investment","state":"MI","state0":"MI"},"geometry":{"type":"Point","coordinates":[-84.146352,42.951545]},"id":"080ebdd6ff1ddb8417fb78c072fd69d8"},{"type":"Feature","properties":{"GEOID":14010,"NAME":"Bloomington, IL Metro Area","category":"capitalized","state":"IL","state0":"IL"},"geometry":{"type":"Point","coordinates":[-88.861307,40.405593]},"id":"082b371f0d5905bcb3d9c75368d8ca55"},{"type":"Feature","properties":{"GEOID":10300,"NAME":"Adrian, MI Micro Area","category":"investment","state":"MI","state0":"MI"},"geometry":{"type":"Point","coordinates":[-84.074307,41.896019]},"id":"0889d1eb89a59cad0a90edb200eff4f0"},{"type":"Feature","properties":{"GEOID":31820,"NAME":"Manitowoc, WI Micro Area","category":"investment","state":"WI","state0":"WI"},"geometry":{"type":"Point","coordinates":[-87.315478,44.104433]},"id":"08d45675d2d3abd431fbd287971d9b03"},{"type":"Feature","properties":{"GEOID":11780,"NAME":"Ashtabula, OH Micro Area","category":"investment","state":"OH","state0":"OH"},"geometry":{"type":"Point","coordinates":[-80.745592,41.906637]},"id":"08e3d0530a7a9ed1bbce7cff476783dc"},{"type":"Feature","properties":{"GEOID":11500,"NAME":"Anniston-Oxford-Jacksonville, AL Metro Area","category":"investment","state":"AL","state0":"AL"},"geometry":{"type":"Point","coordinates":[-85.822513,33.771706]},"id":"0a8ffdf3760901e0afc3baabe0d26d4e"},{"type":"Feature","properties":{"GEOID":40140,"NAME":"Riverside-San Bernardino-Ontario, CA Metro Area","category":"capitalized","state":"CA","state0":"CA"},"geometry":{"type":"Point","coordinates":[-116.130921,34.537534]},"id":"0ad392900b10dd1bad3c6ed6a1f03336"},{"type":"Feature","properties":{"GEOID":32020,"NAME":"Marion, OH Micro Area","category":"opportunity","state":"OH","state0":"OH"},"geometry":{"type":"Point","coordinates":[-83.168803,40.588034]},"id":"0b1411cdd346c606ebd362ac6583ed01"},{"type":"Feature","properties":{"GEOID":34940,"NAME":"Naples-Immokalee-Marco Island, FL Metro Area","category":"capitalized","state":"FL","state0":"FL"},"geometry":{"type":"Point","coordinates":[-81.400955,26.118786]},"id":"0bf5f1ff5c6e37ceeecb9d02452617c7"},{"type":"Feature","properties":{"GEOID":34340,"NAME":"Mount Airy, NC Micro Area","category":"opportunity","state":"NC","state0":"NC"},"geometry":{"type":"Point","coordinates":[-80.686463,36.415416]},"id":"0c5f58934069ccaad504f44ba3a20293"},{"type":"Feature","properties":{"GEOID":12580,"NAME":"Baltimore-Columbia-Towson, MD Metro Area","category":"capitalized","state":"MD","state0":"MD"},"geometry":{"type":"Point","coordinates":[-76.549501,39.304361]},"id":"0c6b329d0299416399ce944d8032123b"},{"type":"Feature","properties":{"GEOID":13460,"NAME":"Bend-Redmond, OR Metro Area","category":"capitalized","state":"OR","state0":"OR"},"geometry":{"type":"Point","coordinates":[-121.225575,43.915118]},"id":"0cbe2b251838d7c03339f4a88d1a9e03"},{"type":"Feature","properties":{"GEOID":25840,"NAME":"Hermiston-Pendleton, OR Micro Area","category":"investment","state":"OR","state0":"OR"},"geometry":{"type":"Point","coordinates":[-119.076191,45.544602]},"id":"0cc806e05c2659933ee96fd9dad9628a"},{"type":"Feature","properties":{"GEOID":22220,"NAME":"Fayetteville-Springdale-Rogers, AR-MO Metro Area","category":"investment","state":"AR-MO","state0":"AR","state1":"MO"},"geometry":{"type":"Point","coordinates":[-94.119897,36.197633]},"id":"0d329f4d0ba3ee802125dc0339a49eb7"},{"type":"Feature","properties":{"GEOID":41780,"NAME":"Sandusky, OH Micro Area","category":"capitalized","state":"OH","state0":"OH"},"geometry":{"type":"Point","coordinates":[-82.525897,41.554006]},"id":"0d78e026bc0a1fda17cf55fa83ed96e5"},{"type":"Feature","properties":{"GEOID":49780,"NAME":"Zanesville, OH Micro Area","category":"investment","state":"OH","state0":"OH"},"geometry":{"type":"Point","coordinates":[-81.943506,39.966046]},"id":"0e3557db05cea9ecc25dc3d3d9659c3a"},{"type":"Feature","properties":{"GEOID":17020,"NAME":"Chico, CA Metro Area","category":"growth","state":"CA","state0":"CA"},"geometry":{"type":"Point","coordinates":[-121.601919,39.665959]},"id":"0e5e2d332ca176cbb6c32cf34896ac77"},{"type":"Feature","properties":{"GEOID":45860,"NAME":"Torrington, CT Micro Area","category":"capitalized","state":"CT","state0":"CT"},"geometry":{"type":"Point","coordinates":[-73.235404,41.791883]},"id":"0e95e3835ed246df75dc691a9e145bb6"},{"type":"Feature","properties":{"GEOID":41700,"NAME":"San Antonio-New Braunfels, TX Metro Area","category":"opportunity","state":"TX","state0":"TX"},"geometry":{"type":"Point","coordinates":[-98.606973,29.43306]},"id":"0eabf851df9c96d9afa7c041c15fdba6"},{"type":"Feature","properties":{"GEOID":26300,"NAME":"Hot Springs, AR Metro Area","category":"opportunity","state":"AR","state0":"AR"},"geometry":{"type":"Point","coordinates":[-93.146932,34.578852]},"id":"0f3cac81ed25be35337c0080fa9ab5b8"},{"type":"Feature","properties":{"GEOID":12420,"NAME":"Austin-Round Rock, TX Metro Area","category":"capitalized","state":"TX","state0":"TX"},"geometry":{"type":"Point","coordinates":[-97.69127,30.239513]},"id":"0f896a339855a3c8ef3d21d437868251"},{"type":"Feature","properties":{"GEOID":12100,"NAME":"Atlantic City-Hammonton, NJ Metro Area","category":"capitalized","state":"NJ","state0":"NJ"},"geometry":{"type":"Point","coordinates":[-74.633758,39.469354]},"id":"0fd59c83934454f971e0d44e399e2666"},{"type":"Feature","properties":{"GEOID":41400,"NAME":"Salem, OH Micro Area","category":"investment","state":"OH","state0":"OH"},"geometry":{"type":"Point","coordinates":[-80.778455,40.770073]},"id":"0fffce2a29fcadd2db5de2d96406f9b5"},{"type":"Feature","properties":{"GEOID":31180,"NAME":"Lubbock, TX Metro Area","category":"capitalized","state":"TX","state0":"TX"},"geometry":{"type":"Point","coordinates":[-101.648825,33.470326]},"id":"10a24cae13586134b09bb520ce60e71d"},{"type":"Feature","properties":{"GEOID":26740,"NAME":"Hutchinson, KS Micro Area","category":"investment","state":"KS","state0":"KS"},"geometry":{"type":"Point","coordinates":[-98.078346,37.948185]},"id":"10ec6b1ca27802609d82144c8701b8fc"},{"type":"Feature","properties":{"GEOID":24220,"NAME":"Grand Forks, ND-MN Metro Area","category":"capitalized","state":"ND-MN","state0":"ND","state1":"MN"},"geometry":{"type":"Point","coordinates":[-96.842681,47.835929]},"id":"11126765981ffc124ea52fb1fc35cae1"},{"type":"Feature","properties":{"GEOID":35300,"NAME":"New Haven-Milford, CT Metro Area","category":"capitalized","state":"CT","state0":"CT"},"geometry":{"type":"Point","coordinates":[-72.900204,41.349717]},"id":"125f251a0872a25766bff7af5bc11e1b"},{"type":"Feature","properties":{"GEOID":23700,"NAME":"Gallup, NM Micro Area","category":"investment","state":"NM","state0":"NM"},"geometry":{"type":"Point","coordinates":[-108.253266,35.583878]},"id":"12f138d8b04f7076e617ee2615b9b40e"},{"type":"Feature","properties":{"GEOID":32580,"NAME":"McAllen-Edinburg-Mission, TX Metro Area","category":"opportunity","state":"TX","state0":"TX"},"geometry":{"type":"Point","coordinates":[-98.18099,26.396384]},"id":"1304a626bc02f2b256f7820011f4ca45"},{"type":"Feature","properties":{"GEOID":33220,"NAME":"Midland, MI Metro Area","category":"growth","state":"MI","state0":"MI"},"geometry":{"type":"Point","coordinates":[-84.379414,43.648203]},"id":"13268a6545a221ff5a605d12cbbcd139"},{"type":"Feature","properties":{"GEOID":30780,"NAME":"Little Rock-North Little Rock-Conway, AR Metro Area","category":"opportunity","state":"AR","state0":"AR"},"geometry":{"type":"Point","coordinates":[-92.400589,34.755773]},"id":"1336304d8c7df5903dbcb261cdf56f01"},{"type":"Feature","properties":{"GEOID":15380,"NAME":"Buffalo-Cheektowaga-Niagara Falls, NY Metro Area","category":"capitalized","state":"NY","state0":"NY"},"geometry":{"type":"Point","coordinates":[-78.777335,43.044371]},"id":"143158748af31bac3e95bb681256e035"},{"type":"Feature","properties":{"GEOID":27180,"NAME":"Jackson, TN Metro Area","category":"investment","state":"TN","state0":"TN"},"geometry":{"type":"Point","coordinates":[-88.854393,35.610789]},"id":"14e3df7c67a1520385818f0a1c77cef7"},{"type":"Feature","properties":{"GEOID":29300,"NAME":"LaGrange, GA Micro Area","category":"investment","state":"GA","state0":"GA"},"geometry":{"type":"Point","coordinates":[-85.02836,33.034481]},"id":"160c18da9a399f44d72a8e46189aed66"},{"type":"Feature","properties":{"GEOID":22380,"NAME":"Flagstaff, AZ Metro Area","category":"investment","state":"AZ","state0":"AZ"},"geometry":{"type":"Point","coordinates":[-111.773728,35.829692]},"id":"166636306b7b610e42d3d8d24b910703"},{"type":"Feature","properties":{"GEOID":17300,"NAME":"Clarksville, TN-KY Metro Area","category":"growth","state":"TN-KY","state0":"TN","state1":"KY"},"geometry":{"type":"Point","coordinates":[-87.558283,36.749207]},"id":"1694b45da3665618f2d6eeeaaea0ad7c"},{"type":"Feature","properties":{"GEOID":23420,"NAME":"Fresno, CA Metro Area","category":"investment","state":"CA","state0":"CA"},"geometry":{"type":"Point","coordinates":[-119.655019,36.761006]},"id":"169fb4a2f8478cf7acf6b7f19e5c9592"},{"type":"Feature","properties":{"GEOID":29340,"NAME":"Lake Charles, LA Metro Area","category":"investment","state":"LA","state0":"LA"},"geometry":{"type":"Point","coordinates":[-93.253243,29.978755]},"id":"16a6ca9b3b89887e7db76d0cf7d71ceb"},{"type":"Feature","properties":{"GEOID":28300,"NAME":"Keene, NH Micro Area","category":"growth","state":"NH","state0":"NH"},"geometry":{"type":"Point","coordinates":[-72.248217,42.925455]},"id":"17559b5a120f9274a9f34061e6d7279b"},{"type":"Feature","properties":{"GEOID":42700,"NAME":"Sebring, FL Metro Area","category":"investment","state":"FL","state0":"FL"},"geometry":{"type":"Point","coordinates":[-81.340921,27.342627]},"id":"175a06d3a71bf13246250f906fa375ca"},{"type":"Feature","properties":{"GEOID":25180,"NAME":"Hagerstown-Martinsburg, MD-WV Metro Area","category":"capitalized","state":"MD-WV","state0":"MD","state1":"WV"},"geometry":{"type":"Point","coordinates":[-77.899767,39.542152]},"id":"17aa04199b6eea07a2040229f43b792c"},{"type":"Feature","properties":{"GEOID":47460,"NAME":"Walla Walla, WA Metro Area","category":"capitalized","state":"WA","state0":"WA"},"geometry":{"type":"Point","coordinates":[-118.255883,46.263537]},"id":"181f78f68ba3fa9ff36405f5e8c21167"},{"type":"Feature","properties":{"GEOID":39460,"NAME":"Punta Gorda, FL Metro Area","category":"capitalized","state":"FL","state0":"FL"},"geometry":{"type":"Point","coordinates":[-81.941077,26.868933]},"id":"18c58d6363f911bac5e2c0ff94606591"},{"type":"Feature","properties":{"GEOID":16660,"NAME":"Charleston-Mattoon, IL Micro Area","category":"investment","state":"IL","state0":"IL"},"geometry":{"type":"Point","coordinates":[-88.242212,39.423163]},"id":"18e69d5d1d7fd5676cee1467265f7a2c"},{"type":"Feature","properties":{"GEOID":15680,"NAME":"California-Lexington Park, MD Metro Area","category":"opportunity","state":"MD","state0":"MD"},"geometry":{"type":"Point","coordinates":[-76.530384,38.220289]},"id":"190ceea4399060e70242d9c2821b6818"},{"type":"Feature","properties":{"GEOID":20220,"NAME":"Dubuque, IA Metro Area","category":"growth","state":"IA","state0":"IA"},"geometry":{"type":"Point","coordinates":[-90.878771,42.463481]},"id":"1a07ebdc6f814be3463e608ad6dc9bbd"},{"type":"Feature","properties":{"GEOID":36420,"NAME":"Oklahoma City, OK Metro Area","category":"investment","state":"OK","state0":"OK"},"geometry":{"type":"Point","coordinates":[-97.506966,35.430968]},"id":"1a565bbfaffdc868ee5e5f40031c3a02"},{"type":"Feature","properties":{"GEOID":23460,"NAME":"Gadsden, AL Metro Area","category":"opportunity","state":"AL","state0":"AL"},"geometry":{"type":"Point","coordinates":[-86.034263,34.047641]},"id":"1af9d4d064d485378dada126a71de706"},{"type":"Feature","properties":{"GEOID":17340,"NAME":"Clearlake, CA Micro Area","category":"investment","state":"CA","state0":"CA"},"geometry":{"type":"Point","coordinates":[-122.746757,39.094802]},"id":"1b5bcdbb085eb58ae9f95485ecac2a7b"},{"type":"Feature","properties":{"GEOID":31700,"NAME":"Manchester-Nashua, NH Metro Area","category":"capitalized","state":"NH","state0":"NH"},"geometry":{"type":"Point","coordinates":[-71.723055,42.911532]},"id":"1cae5bcc3422dbe041dc8ca007181cc6"},{"type":"Feature","properties":{"GEOID":21420,"NAME":"Enid, OK Metro Area","category":"investment","state":"OK","state0":"OK"},"geometry":{"type":"Point","coordinates":[-97.787729,36.378273]},"id":"1d2e32943f91aa0a50e4ee478a751c01"},{"type":"Feature","properties":{"GEOID":34780,"NAME":"Muskogee, OK Micro Area","category":"investment","state":"OK","state0":"OK"},"geometry":{"type":"Point","coordinates":[-95.383911,35.617551]},"id":"1dd175ebf3cf0afe4994cc0958409407"},{"type":"Feature","properties":{"GEOID":10700,"NAME":"Albertville, AL Micro Area","category":"opportunity","state":"AL","state0":"AL"},"geometry":{"type":"Point","coordinates":[-86.321668,34.309564]},"id":"1e99fcb69316413fdd13e38da3443bf4"},{"type":"Feature","properties":{"GEOID":35420,"NAME":"New Philadelphia-Dover, OH Micro Area","category":"investment","state":"OH","state0":"OH"},"geometry":{"type":"Point","coordinates":[-81.471157,40.447448]},"id":"1eb39f042944fd026bc59d2f36853a50"},{"type":"Feature","properties":{"GEOID":14660,"NAME":"Brainerd, MN Micro Area","category":"growth","state":"MN","state0":"MN"},"geometry":{"type":"Point","coordinates":[-94.225757,46.776305]},"id":"1eddf5ba5770428a8889392bdc8065b0"},{"type":"Feature","properties":{"GEOID":21340,"NAME":"El Paso, TX Metro Area","category":"opportunity","state":"TX","state0":"TX"},"geometry":{"type":"Point","coordinates":[-105.521333,31.527394]},"id":"1f4cdf7127a977ce9f87807f5832aed9"},{"type":"Feature","properties":{"GEOID":27140,"NAME":"Jackson, MS Metro Area","category":"investment","state":"MS","state0":"MS"},"geometry":{"type":"Point","coordinates":[-90.22084,32.316001]},"id":"1faccf08bc058e34a5a7fedae7d040da"},{"type":"Feature","properties":{"GEOID":10180,"NAME":"Abilene, TX Metro Area","category":"investment","state":"TX","state0":"TX"},"geometry":{"type":"Point","coordinates":[-99.718743,32.452022]},"id":"20693b79168dcd5a72c7c5eb1c5fd709"},{"type":"Feature","properties":{"GEOID":31420,"NAME":"Macon-Bibb County, GA Metro Area","category":"investment","state":"GA","state0":"GA"},"geometry":{"type":"Point","coordinates":[-83.714313,32.856197]},"id":"20cf938c1a8b880b17a1bcc84285b2e9"},{"type":"Feature","properties":{"GEOID":33260,"NAME":"Midland, TX Metro Area","category":"capitalized","state":"TX","state0":"TX"},"geometry":{"type":"Point","coordinates":[-101.994539,32.092359]},"id":"2187f8acf9ebc3fa8202085a9e126961"},{"type":"Feature","properties":{"GEOID":36020,"NAME":"Oak Harbor, WA Micro Area","category":"capitalized","state":"WA","state0":"WA"},"geometry":{"type":"Point","coordinates":[-122.670649,48.158554]},"id":"2269f12a2f050692bc1365693e6df6eb"},{"type":"Feature","properties":{"GEOID":44300,"NAME":"State College, PA Metro Area","category":"growth","state":"PA","state0":"PA"},"geometry":{"type":"Point","coordinates":[-77.84783,40.90916]},"id":"22758e3cc935578b7db531ba598d43cc"},{"type":"Feature","properties":{"GEOID":24620,"NAME":"Greeneville, TN Micro Area","category":"opportunity","state":"TN","state0":"TN"},"geometry":{"type":"Point","coordinates":[-82.847485,36.179514]},"id":"2287ca9766d8d7993dd50ea5c2808393"},{"type":"Feature","properties":{"GEOID":18300,"NAME":"Coos Bay, OR Micro Area","category":"investment","state":"OR","state0":"OR"},"geometry":{"type":"Point","coordinates":[-124.094133,43.18591]},"id":"22e48268c14e03151e1086bef2c45ea5"},{"type":"Feature","properties":{"GEOID":29940,"NAME":"Lawrence, KS Metro Area","category":"capitalized","state":"KS","state0":"KS"},"geometry":{"type":"Point","coordinates":[-95.290947,38.896417]},"id":"23240f8cfc1190e9e5aa90da947b40c4"},{"type":"Feature","properties":{"GEOID":38860,"NAME":"Portland-South Portland, ME Metro Area","category":"capitalized","state":"ME","state0":"ME"},"geometry":{"type":"Point","coordinates":[-70.418375,43.651417]},"id":"2330164fb51c83583903dc41732ca358"},{"type":"Feature","properties":{"GEOID":10580,"NAME":"Albany-Schenectady-Troy, NY Metro Area","category":"capitalized","state":"NY","state0":"NY"},"geometry":{"type":"Point","coordinates":[-73.942348,42.78792]},"id":"239e72fbd170b69938948e625a55c612"},{"type":"Feature","properties":{"GEOID":36660,"NAME":"Opelousas, LA Micro Area","category":"investment","state":"LA","state0":"LA"},"geometry":{"type":"Point","coordinates":[-91.989274,30.583441]},"id":"24067bd0f157a1392a62bed67391eaa7"},{"type":"Feature","properties":{"GEOID":31740,"NAME":"Manhattan, KS Metro Area","category":"growth","state":"KS","state0":"KS"},"geometry":{"type":"Point","coordinates":[-96.509902,39.341053]},"id":"24133b9653ae0d60facfe4d79983e54f"},{"type":"Feature","properties":{"GEOID":27620,"NAME":"Jefferson City, MO Metro Area","category":"investment","state":"MO","state0":"MO"},"geometry":{"type":"Point","coordinates":[-92.089227,38.637121]},"id":"24ecc534e4091b21d16b2e3613ca2a4a"},{"type":"Feature","properties":{"GEOID":29620,"NAME":"Lansing-East Lansing, MI Metro Area","category":"capitalized","state":"MI","state0":"MI"},"geometry":{"type":"Point","coordinates":[-84.605372,42.713659]},"id":"252fc304c4745c73594ff1ed5ced6fd4"},{"type":"Feature","properties":{"GEOID":16980,"NAME":"Chicago-Naperville-Elgin, IL-IN-WI Metro Area","category":"capitalized","state":"IL-IN-WI","state0":"IL","state1":"IN","state2":"WI"},"geometry":{"type":"Point","coordinates":[-87.828297,41.823521]},"id":"264545efa8c674d9a77bec28441eb8fd"},{"type":"Feature","properties":{"GEOID":17860,"NAME":"Columbia, MO Metro Area","category":"growth","state":"MO","state0":"MO"},"geometry":{"type":"Point","coordinates":[-92.310202,38.989861]},"id":"278d324e861af4a9c4503fa42acff64f"},{"type":"Feature","properties":{"GEOID":26980,"NAME":"Iowa City, IA Metro Area","category":"capitalized","state":"IA","state0":"IA"},"geometry":{"type":"Point","coordinates":[-91.64793,41.517806]},"id":"283de6bbe716109fd18c38494499da9e"},{"type":"Feature","properties":{"GEOID":37620,"NAME":"Parkersburg-Vienna, WV Metro Area","category":"growth","state":"WV","state0":"WV"},"geometry":{"type":"Point","coordinates":[-81.460419,39.141517]},"id":"2865baab6cc83bf3e16196e98b71ffcc"},{"type":"Feature","properties":{"GEOID":48660,"NAME":"Wichita Falls, TX Metro Area","category":"investment","state":"TX","state0":"TX"},"geometry":{"type":"Point","coordinates":[-98.501907,33.776144]},"id":"2872c95a6a0d188f94194cf9c99c06d6"},{"type":"Feature","properties":{"GEOID":13220,"NAME":"Beckley, WV Metro Area","category":"investment","state":"WV","state0":"WV"},"geometry":{"type":"Point","coordinates":[-81.163907,37.905556]},"id":"28d04ddf9115599cca4aa045a1c47973"},{"type":"Feature","properties":{"GEOID":14460,"NAME":"Boston-Cambridge-Newton, MA-NH Metro Area","category":"capitalized","state":"MA-NH","state0":"MA","state1":"NH"},"geometry":{"type":"Point","coordinates":[-71.021993,42.517606]},"id":"2917843f8fe5adac3e036d734b098659"},{"type":"Feature","properties":{"GEOID":47900,"NAME":"Washington-Arlington-Alexandria, DC-VA-MD-WV Metro Area","category":"capitalized","state":"DC-VA-MD-WV","state0":"DC","state1":"VA","state2":"MD","state3":"WV"},"geometry":{"type":"Point","coordinates":[-77.448228,38.816928]},"id":"29781b81bac7730394301576e15b56da"},{"type":"Feature","properties":{"GEOID":28700,"NAME":"Kingsport-Bristol-Bristol, TN-VA Metro Area","category":"investment","state":"TN-VA","state0":"TN","state1":"VA"},"geometry":{"type":"Point","coordinates":[-82.440145,36.604161]},"id":"2a3c7662f74f03c4dcbffdd07e64c4e3"},{"type":"Feature","properties":{"GEOID":29020,"NAME":"Kokomo, IN Metro Area","category":"investment","state":"IN","state0":"IN"},"geometry":{"type":"Point","coordinates":[-86.114118,40.483537]},"id":"2a54803e1ad06c05724856c06f7593b8"},{"type":"Feature","properties":{"GEOID":33660,"NAME":"Mobile, AL Metro Area","category":"investment","state":"AL","state0":"AL"},"geometry":{"type":"Point","coordinates":[-88.196568,30.684572]},"id":"2a5fdc36810252287d60b0151deab3f8"},{"type":"Feature","properties":{"GEOID":24340,"NAME":"Grand Rapids-Wyoming, MI Metro Area","category":"growth","state":"MI","state0":"MI"},"geometry":{"type":"Point","coordinates":[-85.811208,42.978632]},"id":"2aa899c1ab8d42bf9313533f0f560555"},{"type":"Feature","properties":{"GEOID":17980,"NAME":"Columbus, GA-AL Metro Area","category":"opportunity","state":"GA-AL","state0":"GA","state1":"AL"},"geometry":{"type":"Point","coordinates":[-84.900879,32.436836]},"id":"2abf599e14166165c3fbd1d352439bfa"},{"type":"Feature","properties":{"GEOID":22180,"NAME":"Fayetteville, NC Metro Area","category":"capitalized","state":"NC","state0":"NC"},"geometry":{"type":"Point","coordinates":[-78.982209,35.037956]},"id":"2b98a01e37302e389a7a7e197d2b40b2"},{"type":"Feature","properties":{"GEOID":42140,"NAME":"Santa Fe, NM Metro Area","category":"investment","state":"NM","state0":"NM"},"geometry":{"type":"Point","coordinates":[-105.965771,35.514324]},"id":"2bc24a4ee40e208e28ce6dd09256af0e"},{"type":"Feature","properties":{"GEOID":31540,"NAME":"Madison, WI Metro Area","category":"growth","state":"WI","state0":"WI"},"geometry":{"type":"Point","coordinates":[-89.597178,43.084288]},"id":"2bd36080ef5af772b4dff72de4a002b7"},{"type":"Feature","properties":{"GEOID":44220,"NAME":"Springfield, OH Metro Area","category":"opportunity","state":"OH","state0":"OH"},"geometry":{"type":"Point","coordinates":[-83.783676,39.917032]},"id":"2bd7cbacc3746827c4a1181571a0bf5b"},{"type":"Feature","properties":{"GEOID":17140,"NAME":"Cincinnati, OH-KY-IN Metro Area","category":"capitalized","state":"OH-KY-IN","state0":"OH","state1":"KY","state2":"IN"},"geometry":{"type":"Point","coordinates":[-84.427153,39.069458]},"id":"2dd76f2be16f7192cb74b850cafc44fe"},{"type":"Feature","properties":{"GEOID":22520,"NAME":"Florence-Muscle Shoals, AL Metro Area","category":"investment","state":"AL","state0":"AL"},"geometry":{"type":"Point","coordinates":[-87.719388,34.799254]},"id":"2f40520af41eaa8a20d9b0c6c194ffcc"},{"type":"Feature","properties":{"GEOID":43420,"NAME":"Sierra Vista-Douglas, AZ Metro Area","category":"investment","state":"AZ","state0":"AZ"},"geometry":{"type":"Point","coordinates":[-109.775163,31.840129]},"id":"2f7efed70a775d79703e4762cd803f02"},{"type":"Feature","properties":{"GEOID":26860,"NAME":"Indiana, PA Micro Area","category":"investment","state":"PA","state0":"PA"},"geometry":{"type":"Point","coordinates":[-79.087545,40.651432]},"id":"2fc41885c49ae574e925371472e2cc2a"},{"type":"Feature","properties":{"GEOID":33860,"NAME":"Montgomery, AL Metro Area","category":"investment","state":"AL","state0":"AL"},"geometry":{"type":"Point","coordinates":[-86.404585,32.365631]},"id":"3011e7bc301586f994f381681d34cd61"},{"type":"Feature","properties":{"GEOID":14500,"NAME":"Boulder, CO Metro Area","category":"capitalized","state":"CO","state0":"CO"},"geometry":{"type":"Point","coordinates":[-105.397691,40.09497]},"id":"3036205c09041a0a712baaeb8944253e"},{"type":"Feature","properties":{"GEOID":32740,"NAME":"Meadville, PA Micro Area","category":"investment","state":"PA","state0":"PA"},"geometry":{"type":"Point","coordinates":[-80.107795,41.687876]},"id":"311a9d6de39eab5ec9584db87abe7e0e"},{"type":"Feature","properties":{"GEOID":16820,"NAME":"Charlottesville, VA Metro Area","category":"investment","state":"VA","state0":"VA"},"geometry":{"type":"Point","coordinates":[-78.578282,37.85459]},"id":"321a1ad925086bc5887d7d7419b2ea7d"},{"type":"Feature","properties":{"GEOID":49220,"NAME":"Wisconsin Rapids-Marshfield, WI Micro Area","category":"investment","state":"WI","state0":"WI"},"geometry":{"type":"Point","coordinates":[-90.038825,44.461413]},"id":"32a7d73401d72ca4ee5d219f8a207638"},{"type":"Feature","properties":{"GEOID":16740,"NAME":"Charlotte-Concord-Gastonia, NC-SC Metro Area","category":"capitalized","state":"NC-SC","state0":"NC","state1":"SC"},"geometry":{"type":"Point","coordinates":[-80.867491,35.187295]},"id":"332f15f184e17e9c32147478d048cf7b"},{"type":"Feature","properties":{"GEOID":24640,"NAME":"Greenfield Town, MA Micro Area","category":"growth","state":"MA","state0":"MA"},"geometry":{"type":"Point","coordinates":[-72.591792,42.584504]},"id":"3360efb8749d886b05589b52620df09c"},{"type":"Feature","properties":{"GEOID":35660,"NAME":"Niles-Benton Harbor, MI Metro Area","category":"investment","state":"MI","state0":"MI"},"geometry":{"type":"Point","coordinates":[-86.742543,41.791382]},"id":"33ba9af64a9046fadcf9a51467ecc8cf"},{"type":"Feature","properties":{"GEOID":38940,"NAME":"Port St. Lucie, FL Metro Area","category":"capitalized","state":"FL","state0":"FL"},"geometry":{"type":"Point","coordinates":[-80.42677,27.232699]},"id":"33ff5f70535d6761bd30586b72b1e0ff"},{"type":"Feature","properties":{"GEOID":23060,"NAME":"Fort Wayne, IN Metro Area","category":"growth","state":"IN","state0":"IN"},"geometry":{"type":"Point","coordinates":[-85.216424,41.006999]},"id":"34910cb6ed3c288dea28bca09b85cc54"},{"type":"Feature","properties":{"GEOID":21060,"NAME":"Elizabethtown-Fort Knox, KY Metro Area","category":"capitalized","state":"KY","state0":"KY"},"geometry":{"type":"Point","coordinates":[-85.972171,37.73298]},"id":"35978066a5bbac250662968fa38f8ffa"},{"type":"Feature","properties":{"GEOID":40780,"NAME":"Russellville, AR Micro Area","category":"investment","state":"AR","state0":"AR"},"geometry":{"type":"Point","coordinates":[-93.252763,35.199586]},"id":"35afb1fa1669d85cb981c487058d8f96"},{"type":"Feature","properties":{"GEOID":33460,"NAME":"Minneapolis-St. Paul-Bloomington, MN-WI Metro Area","category":"capitalized","state":"MN-WI","state0":"MN","state1":"WI"},"geometry":{"type":"Point","coordinates":[-93.3516,45.061179]},"id":"36a10718583393fda12002cc856ec9ea"},{"type":"Feature","properties":{"GEOID":49420,"NAME":"Yakima, WA Metro Area","category":"opportunity","state":"WA","state0":"WA"},"geometry":{"type":"Point","coordinates":[-120.740145,46.456558]},"id":"36ca4f6c45d1e6497e7ab7c52aeb4fd4"},{"type":"Feature","properties":{"GEOID":14140,"NAME":"Bluefield, WV-VA Micro Area","category":"opportunity","state":"WV-VA","state0":"WV","state1":"VA"},"geometry":{"type":"Point","coordinates":[-81.359375,37.248463]},"id":"374371b2bb10b6bc6bbd6ad9325c9689"},{"type":"Feature","properties":{"GEOID":27260,"NAME":"Jacksonville, FL Metro Area","category":"capitalized","state":"FL","state0":"FL"},"geometry":{"type":"Point","coordinates":[-81.755235,30.237105]},"id":"37c3b3e93e1b677c1f02bf50347d0c52"},{"type":"Feature","properties":{"GEOID":24580,"NAME":"Green Bay, WI Metro Area","category":"growth","state":"WI","state0":"WI"},"geometry":{"type":"Point","coordinates":[-87.996151,44.474021]},"id":"3904d6c219158f90225dea2a77aaa4af"},{"type":"Feature","properties":{"GEOID":49180,"NAME":"Winston-Salem, NC Metro Area","category":"capitalized","state":"NC","state0":"NC"},"geometry":{"type":"Point","coordinates":[-80.345064,36.078852]},"id":"39701693c06d8f2dfce89c914c534ef5"},{"type":"Feature","properties":{"GEOID":12260,"NAME":"Augusta-Richmond County, GA-SC Metro Area","category":"investment","state":"GA-SC","state0":"GA","state1":"SC"},"geometry":{"type":"Point","coordinates":[-81.982833,33.460371]},"id":"3a544ef04b3b7aa8933ca37327d593ac"},{"type":"Feature","properties":{"GEOID":13780,"NAME":"Binghamton, NY Metro Area","category":"capitalized","state":"NY","state0":"NY"},"geometry":{"type":"Point","coordinates":[-76.022943,42.163928]},"id":"3abb3a67df26c9020028ef6a31a3f289"},{"type":"Feature","properties":{"GEOID":29100,"NAME":"La Crosse-Onalaska, WI-MN Metro Area","category":"capitalized","state":"WI-MN","state0":"WI","state1":"MN"},"geometry":{"type":"Point","coordinates":[-91.318743,43.783246]},"id":"3abb8bdd276de9f4b7c2f37ef110332d"},{"type":"Feature","properties":{"GEOID":24500,"NAME":"Great Falls, MT Metro Area","category":"opportunity","state":"MT","state0":"MT"},"geometry":{"type":"Point","coordinates":[-111.350571,47.316443]},"id":"3b753808da88f5527c26b188a66cedc1"},{"type":"Feature","properties":{"GEOID":17820,"NAME":"Colorado Springs, CO Metro Area","category":"capitalized","state":"CO","state0":"CO"},"geometry":{"type":"Point","coordinates":[-104.638728,38.845507]},"id":"3c226beaa4f6cfeda3385a4b9303de7f"},{"type":"Feature","properties":{"GEOID":27100,"NAME":"Jackson, MI Metro Area","category":"investment","state":"MI","state0":"MI"},"geometry":{"type":"Point","coordinates":[-84.420868,42.248474]},"id":"3c29028a9fa32450abf36408b6112869"},{"type":"Feature","properties":{"GEOID":37260,"NAME":"Palatka, FL Micro Area","category":"investment","state":"FL","state0":"FL"},"geometry":{"type":"Point","coordinates":[-81.740894,29.606006]},"id":"3c9e310599d33f06941ac8248b783d79"},{"type":"Feature","properties":{"GEOID":46140,"NAME":"Tulsa, OK Metro Area","category":"investment","state":"OK","state0":"OK"},"geometry":{"type":"Point","coordinates":[-96.174976,36.254148]},"id":"3cc922ff3529edf14144a52008dd9ff4"},{"type":"Feature","properties":{"GEOID":26660,"NAME":"Huntsville, TX Micro Area","category":"investment","state":"TX","state0":"TX"},"geometry":{"type":"Point","coordinates":[-95.36929,30.909844]},"id":"3cf0c79845017c123601fedf93d05c0e"},{"type":"Feature","properties":{"GEOID":30860,"NAME":"Logan, UT-ID Metro Area","category":"capitalized","state":"UT-ID","state0":"UT","state1":"ID"},"geometry":{"type":"Point","coordinates":[-111.784324,41.883617]},"id":"3d580c70d05dc6baf1af22386d7bcc0a"},{"type":"Feature","properties":{"GEOID":22060,"NAME":"Faribault-Northfield, MN Micro Area","category":"opportunity","state":"MN","state0":"MN"},"geometry":{"type":"Point","coordinates":[-93.298503,44.350943]},"id":"3e22bc451db3b065e337188b29a9e6e7"},{"type":"Feature","properties":{"GEOID":29700,"NAME":"Laredo, TX Metro Area","category":"opportunity","state":"TX","state0":"TX"},"geometry":{"type":"Point","coordinates":[-99.340752,27.760799]},"id":"3f4d66ec0525f69a60c15a99590ee179"},{"type":"Feature","properties":{"GEOID":20260,"NAME":"Duluth, MN-WI Metro Area","category":"investment","state":"MN-WI","state0":"MN","state1":"WI"},"geometry":{"type":"Point","coordinates":[-92.376259,47.329701]},"id":"3f4ff888f1c696291387a43f78dd1ed7"},{"type":"Feature","properties":{"GEOID":32100,"NAME":"Marquette, MI Micro Area","category":"growth","state":"MI","state0":"MI"},"geometry":{"type":"Point","coordinates":[-87.584028,46.656596]},"id":"3f55135208cc45e3af59c944b77ce806"},{"type":"Feature","properties":{"GEOID":36980,"NAME":"Owensboro, KY Metro Area","category":"investment","state":"KY","state0":"KY"},"geometry":{"type":"Point","coordinates":[-87.077058,37.693723]},"id":"3fb887b40d7dbd13a2f294bfa169c782"},{"type":"Feature","properties":{"GEOID":37100,"NAME":"Oxnard-Thousand Oaks-Ventura, CA Metro Area","category":"capitalized","state":"CA","state0":"CA"},"geometry":{"type":"Point","coordinates":[-119.133143,34.358741]},"id":"402e84feee951fa791a73cf75eabd9d3"},{"type":"Feature","properties":{"GEOID":25860,"NAME":"Hickory-Lenoir-Morganton, NC Metro Area","category":"opportunity","state":"NC","state0":"NC"},"geometry":{"type":"Point","coordinates":[-81.457067,35.814667]},"id":"40a7af70ad61bd74987f24684fbc4a73"},{"type":"Feature","properties":{"GEOID":23580,"NAME":"Gainesville, GA Metro Area","category":"opportunity","state":"GA","state0":"GA"},"geometry":{"type":"Point","coordinates":[-83.8185,34.317569]},"id":"41d2e95c0fed8a39d647b3ffbcb965dc"},{"type":"Feature","properties":{"GEOID":36700,"NAME":"Orangeburg, SC Micro Area","category":"investment","state":"SC","state0":"SC"},"geometry":{"type":"Point","coordinates":[-80.802913,33.436135]},"id":"421370a890bde9cfe4aa0702c7bc4068"},{"type":"Feature","properties":{"GEOID":21660,"NAME":"Eugene, OR Metro Area","category":"growth","state":"OR","state0":"OR"},"geometry":{"type":"Point","coordinates":[-122.89769,43.928329]},"id":"42562e813abf18efb28aa4d3b534975c"},{"type":"Feature","properties":{"GEOID":49020,"NAME":"Winchester, VA-WV Metro Area","category":"investment","state":"VA-WV","state0":"VA","state1":"WV"},"geometry":{"type":"Point","coordinates":[-78.471828,39.272974]},"id":"42bc7164c17e3c5a49ae2490d6fec478"},{"type":"Feature","properties":{"GEOID":44340,"NAME":"Statesboro, GA Micro Area","category":"investment","state":"GA","state0":"GA"},"geometry":{"type":"Point","coordinates":[-81.744021,32.391711]},"id":"439d7af825f1ec1172c8d5a0a7146ea7"},{"type":"Feature","properties":{"GEOID":30020,"NAME":"Lawton, OK Metro Area","category":"investment","state":"OK","state0":"OK"},"geometry":{"type":"Point","coordinates":[-98.430917,34.52911]},"id":"43eb9c95b7164b00a98a7f53c652a9ab"},{"type":"Feature","properties":{"GEOID":12940,"NAME":"Baton Rouge, LA Metro Area","category":"capitalized","state":"LA","state0":"LA"},"geometry":{"type":"Point","coordinates":[-91.134533,30.57089]},"id":"4562d4e89af1832ec86f88ad115b6137"},{"type":"Feature","properties":{"GEOID":19460,"NAME":"Decatur, AL Metro Area","category":"investment","state":"AL","state0":"AL"},"geometry":{"type":"Point","coordinates":[-87.097147,34.489361]},"id":"4685c36c6ef94faa0a2dfb53f01fbbf1"},{"type":"Feature","properties":{"GEOID":16500,"NAME":"Centralia, WA Micro Area","category":"investment","state":"WA","state0":"WA"},"geometry":{"type":"Point","coordinates":[-122.377444,46.580071]},"id":"478382c7a6d063914ca716bd187c43e9"},{"type":"Feature","properties":{"GEOID":27060,"NAME":"Ithaca, NY Metro Area","category":"capitalized","state":"NY","state0":"NY"},"geometry":{"type":"Point","coordinates":[-76.473483,42.453006]},"id":"47bf0b1874246506d7eb5d49b9fae098"},{"type":"Feature","properties":{"GEOID":17780,"NAME":"College Station-Bryan, TX Metro Area","category":"opportunity","state":"TX","state0":"TX"},"geometry":{"type":"Point","coordinates":[-96.488537,30.754392]},"id":"47d95f22503644c958a65ce90a28e4b8"},{"type":"Feature","properties":{"GEOID":18500,"NAME":"Corning, NY Micro Area","category":"investment","state":"NY","state0":"NY"},"geometry":{"type":"Point","coordinates":[-77.385525,42.266725]},"id":"48b5c45ea4483177c9026817ce4db8ba"},{"type":"Feature","properties":{"GEOID":37980,"NAME":"Philadelphia-Camden-Wilmington, PA-NJ-DE-MD Metro Area","category":"capitalized","state":"PA-NJ-DE-MD","state0":"PA","state1":"NJ","state2":"DE","state3":"MD"},"geometry":{"type":"Point","coordinates":[-75.312003,39.89513]},"id":"48bb15f8abdcc76520997a4f70f37844"},{"type":"Feature","properties":{"GEOID":35260,"NAME":"New Castle, PA Micro Area","category":"opportunity","state":"PA","state0":"PA"},"geometry":{"type":"Point","coordinates":[-80.334446,40.992735]},"id":"48d9eebe5883e6fdb61168cca2eee15d"},{"type":"Feature","properties":{"GEOID":44100,"NAME":"Springfield, IL Metro Area","category":"capitalized","state":"IL","state0":"IL"},"geometry":{"type":"Point","coordinates":[-89.696205,39.828565]},"id":"4939a07b75f64e954633ab66f377fa86"},{"type":"Feature","properties":{"GEOID":40900,"NAME":"Sacramento--Roseville--Arden-Arcade, CA Metro Area","category":"capitalized","state":"CA","state0":"CA"},"geometry":{"type":"Point","coordinates":[-121.00575,38.789678]},"id":"49fa5bfe568cbcd8ad386ba6573b527f"},{"type":"Feature","properties":{"GEOID":16020,"NAME":"Cape Girardeau, MO-IL Metro Area","category":"investment","state":"MO-IL","state0":"MO","state1":"IL"},"geometry":{"type":"Point","coordinates":[-89.762639,37.325936]},"id":"4a22110603e90d552d41adb282c77ea4"},{"type":"Feature","properties":{"GEOID":33140,"NAME":"Michigan City-La Porte, IN Metro Area","category":"opportunity","state":"IN","state0":"IN"},"geometry":{"type":"Point","coordinates":[-86.744739,41.549013]},"id":"4aa13bb8eb0847bd2d6c9aef3aff76e3"},{"type":"Feature","properties":{"GEOID":49740,"NAME":"Yuma, AZ Metro Area","category":"investment","state":"AZ","state0":"AZ"},"geometry":{"type":"Point","coordinates":[-113.910905,32.773941]},"id":"4af6d360f5c256b0d1212728ee57e77f"},{"type":"Feature","properties":{"GEOID":43320,"NAME":"Show Low, AZ Micro Area","category":"investment","state":"AZ","state0":"AZ"},"geometry":{"type":"Point","coordinates":[-110.321025,35.390785]},"id":"4b07301ff193cd2af2027ddb9ae68af6"},{"type":"Feature","properties":{"GEOID":20700,"NAME":"East Stroudsburg, PA Metro Area","category":"capitalized","state":"PA","state0":"PA"},"geometry":{"type":"Point","coordinates":[-75.329065,41.05624]},"id":"4b1e9d8aee3b9c6169cfe7f41fa96e1d"},{"type":"Feature","properties":{"GEOID":20180,"NAME":"DuBois, PA Micro Area","category":"investment","state":"PA","state0":"PA"},"geometry":{"type":"Point","coordinates":[-78.473749,41.000249]},"id":"4b58173786e2ce8ae2d4c275081c9e25"},{"type":"Feature","properties":{"GEOID":45460,"NAME":"Terre Haute, IN Metro Area","category":"investment","state":"IN","state0":"IN"},"geometry":{"type":"Point","coordinates":[-87.347096,39.392389]},"id":"4b88f2ba84adb425ca9ac0642e66ad8a"},{"type":"Feature","properties":{"GEOID":11700,"NAME":"Asheville, NC Metro Area","category":"investment","state":"NC","state0":"NC"},"geometry":{"type":"Point","coordinates":[-82.681615,35.595669]},"id":"4b9994e6d93a7b06039b694092454046"},{"type":"Feature","properties":{"GEOID":31260,"NAME":"Lufkin, TX Micro Area","category":"growth","state":"TX","state0":"TX"},"geometry":{"type":"Point","coordinates":[-94.611056,31.251951]},"id":"4c14111aad87cddbaea3d80d1089c66c"},{"type":"Feature","properties":{"GEOID":48140,"NAME":"Wausau, WI Metro Area","category":"investment","state":"WI","state0":"WI"},"geometry":{"type":"Point","coordinates":[-89.757823,44.898036]},"id":"4c878984d495da7d7a288bd2922732a2"},{"type":"Feature","properties":{"GEOID":47020,"NAME":"Victoria, TX Metro Area","category":"opportunity","state":"TX","state0":"TX"},"geometry":{"type":"Point","coordinates":[-97.196993,28.731455]},"id":"4c974bf77c9a7f74b189ace772fe502c"},{"type":"Feature","properties":{"GEOID":35980,"NAME":"Norwich-New London, CT Metro Area","category":"capitalized","state":"CT","state0":"CT"},"geometry":{"type":"Point","coordinates":[-72.108634,41.472652]},"id":"4cee63a434588eb4f4bb691fa508fa39"},{"type":"Feature","properties":{"GEOID":46060,"NAME":"Tucson, AZ Metro Area","category":"growth","state":"AZ","state0":"AZ"},"geometry":{"type":"Point","coordinates":[-111.783027,32.128523]},"id":"4d6c86be825fbde0492170a48170a611"},{"type":"Feature","properties":{"GEOID":39380,"NAME":"Pueblo, CO Metro Area","category":"opportunity","state":"CO","state0":"CO"},"geometry":{"type":"Point","coordinates":[-104.489892,38.170658]},"id":"4d8c99decffd5b90a6e85684afce2934"},{"type":"Feature","properties":{"GEOID":20020,"NAME":"Dothan, AL Metro Area","category":"investment","state":"AL","state0":"AL"},"geometry":{"type":"Point","coordinates":[-85.46919,31.245525]},"id":"4df35cd58e8c51c438fd2d849a7b3611"},{"type":"Feature","properties":{"GEOID":18980,"NAME":"Cullman, AL Micro Area","category":"investment","state":"AL","state0":"AL"},"geometry":{"type":"Point","coordinates":[-86.869267,34.131923]},"id":"4e548cba0ec01edb4cf492cec99eaa2f"},{"type":"Feature","properties":{"GEOID":31140,"NAME":"Louisville/Jefferson County, KY-IN Metro Area","category":"capitalized","state":"KY-IN","state0":"KY","state1":"IN"},"geometry":{"type":"Point","coordinates":[-85.668941,38.33524]},"id":"4eaa55070978e0eb6fd63ca7470cba6e"},{"type":"Feature","properties":{"GEOID":20380,"NAME":"Dunn, NC Micro Area","category":"capitalized","state":"NC","state0":"NC"},"geometry":{"type":"Point","coordinates":[-78.87161,35.368635]},"id":"4f2ddc84982e84764e953fd879c47dbd"},{"type":"Feature","properties":{"GEOID":19180,"NAME":"Danville, IL Metro Area","category":"investment","state":"IL","state0":"IL"},"geometry":{"type":"Point","coordinates":[-87.726778,40.186754]},"id":"4f54b258575e7f0514796e1f16981c34"},{"type":"Feature","properties":{"GEOID":25060,"NAME":"Gulfport-Biloxi-Pascagoula, MS Metro Area","category":"investment","state":"MS","state0":"MS"},"geometry":{"type":"Point","coordinates":[-88.979736,30.430245]},"id":"4f5c51dab7f76ef2b0d71b22a71b5827"},{"type":"Feature","properties":{"GEOID":49700,"NAME":"Yuba City, CA Metro Area","category":"investment","state":"CA","state0":"CA"},"geometry":{"type":"Point","coordinates":[-121.511833,39.160969]},"id":"4f5d7796f86f5b295d057713aa90c865"},{"type":"Feature","properties":{"GEOID":29540,"NAME":"Lancaster, PA Metro Area","category":"capitalized","state":"PA","state0":"PA"},"geometry":{"type":"Point","coordinates":[-76.250198,40.041992]},"id":"5059d2d3c6b2e9f37850fff9914d0f70"},{"type":"Feature","properties":{"GEOID":43580,"NAME":"Sioux City, IA-NE-SD Metro Area","category":"investment","state":"IA-NE-SD","state0":"IA","state1":"NE","state2":"SD"},"geometry":{"type":"Point","coordinates":[-96.376047,42.580634]},"id":"51ad84ac6d759b5d6480c82a405fe37a"},{"type":"Feature","properties":{"GEOID":22020,"NAME":"Fargo, ND-MN Metro Area","category":"capitalized","state":"ND-MN","state0":"ND","state1":"MN"},"geometry":{"type":"Point","coordinates":[-96.960183,46.914859]},"id":"525a7b089d3c5184d66ad3847f67864a"},{"type":"Feature","properties":{"GEOID":34380,"NAME":"Mount Pleasant, MI Micro Area","category":"investment","state":"MI","state0":"MI"},"geometry":{"type":"Point","coordinates":[-84.839424,43.645233]},"id":"52fbdfea6c6e05e35a42c171f992f64f"},{"type":"Feature","properties":{"GEOID":14100,"NAME":"Bloomsburg-Berwick, PA Metro Area","category":"investment","state":"PA","state0":"PA"},"geometry":{"type":"Point","coordinates":[-76.461654,41.040404]},"id":"543c30df15a8b7566806a2ff5352e851"},{"type":"Feature","properties":{"GEOID":33780,"NAME":"Monroe, MI Metro Area","category":"capitalized","state":"MI","state0":"MI"},"geometry":{"type":"Point","coordinates":[-83.487106,41.916097]},"id":"54a06f000d1c8025dd2056c9913d5142"},{"type":"Feature","properties":{"GEOID":44940,"NAME":"Sumter, SC Metro Area","category":"opportunity","state":"SC","state0":"SC"},"geometry":{"type":"Point","coordinates":[-80.382288,33.916253]},"id":"54a528d9b0e6fe8a94175deea99fd1f2"},{"type":"Feature","properties":{"GEOID":45220,"NAME":"Tallahassee, FL Metro Area","category":"growth","state":"FL","state0":"FL"},"geometry":{"type":"Point","coordinates":[-84.28041,30.386428]},"id":"54b731ef657d31ec507171cfe3640d54"},{"type":"Feature","properties":{"GEOID":35620,"NAME":"New York-Newark-Jersey City, NY-NJ-PA Metro Area","category":"capitalized","state":"NY-NJ-PA","state0":"NY","state1":"NJ","state2":"PA"},"geometry":{"type":"Point","coordinates":[-73.90313,40.898788]},"id":"54efcd532af95ea0a124079f62f7dc05"},{"type":"Feature","properties":{"GEOID":26580,"NAME":"Huntington-Ashland, WV-KY-OH Metro Area","category":"investment","state":"WV-KY-OH","state0":"WV","state1":"KY","state2":"OH"},"geometry":{"type":"Point","coordinates":[-82.385193,38.373691]},"id":"55140539d23972b57abecb530af3d6d0"},{"type":"Feature","properties":{"GEOID":43740,"NAME":"Somerset, PA Micro Area","category":"investment","state":"PA","state0":"PA"},"geometry":{"type":"Point","coordinates":[-79.028486,39.981297]},"id":"552dd3557d8f7cfe51dfa2546713ef7b"},{"type":"Feature","properties":{"GEOID":33700,"NAME":"Modesto, CA Metro Area","category":"capitalized","state":"CA","state0":"CA"},"geometry":{"type":"Point","coordinates":[-121.002831,37.562316]},"id":"55a007f21674f2798865fbd86342aaa4"},{"type":"Feature","properties":{"GEOID":11900,"NAME":"Athens, OH Micro Area","category":"investment","state":"OH","state0":"OH"},"geometry":{"type":"Point","coordinates":[-82.045844,39.332604]},"id":"567cfa1b1360429068fb31e131846b96"},{"type":"Feature","properties":{"GEOID":28100,"NAME":"Kankakee, IL Metro Area","category":"capitalized","state":"IL","state0":"IL"},"geometry":{"type":"Point","coordinates":[-87.861117,41.13951]},"id":"5694adaf23909b5f873ee3ac48ad1fad"},{"type":"Feature","properties":{"GEOID":37900,"NAME":"Peoria, IL Metro Area","category":"investment","state":"IL","state0":"IL"},"geometry":{"type":"Point","coordinates":[-89.514745,40.788255]},"id":"571de6c3ac1ef86c4d5ae91a8a5745a0"},{"type":"Feature","properties":{"GEOID":41860,"NAME":"San Francisco-Oakland-Hayward, CA Metro Area","category":"capitalized","state":"CA","state0":"CA"},"geometry":{"type":"Point","coordinates":[-122.274432,37.773718]},"id":"585c878347c86675bec37b99f9363d55"},{"type":"Feature","properties":{"GEOID":12620,"NAME":"Bangor, ME Metro Area","category":"growth","state":"ME","state0":"ME"},"geometry":{"type":"Point","coordinates":[-68.666598,45.409279]},"id":"58e815090938bc79c291ec844340de29"},{"type":"Feature","properties":{"GEOID":46100,"NAME":"Tullahoma-Manchester, TN Micro Area","category":"opportunity","state":"TN","state0":"TN"},"geometry":{"type":"Point","coordinates":[-86.111905,35.303085]},"id":"5a2884e564e9d3cd930e9938bed61e93"},{"type":"Feature","properties":{"GEOID":12300,"NAME":"Augusta-Waterville, ME Micro Area","category":"capitalized","state":"ME","state0":"ME"},"geometry":{"type":"Point","coordinates":[-69.765764,44.417012]},"id":"5a3288c54db03dafe1da1fd9471800a8"},{"type":"Feature","properties":{"GEOID":39900,"NAME":"Reno, NV Metro Area","category":"capitalized","state":"NV","state0":"NV"},"geometry":{"type":"Point","coordinates":[-119.731161,40.500795]},"id":"5ac9a766f2c229de9a2440d6291d9faa"},{"type":"Feature","properties":{"GEOID":46340,"NAME":"Tyler, TX Metro Area","category":"investment","state":"TX","state0":"TX"},"geometry":{"type":"Point","coordinates":[-95.268743,32.375106]},"id":"5b08abf844533796fa8676009e64462e"},{"type":"Feature","properties":{"GEOID":22140,"NAME":"Farmington, NM Metro Area","category":"investment","state":"NM","state0":"NM"},"geometry":{"type":"Point","coordinates":[-108.324578,36.511624]},"id":"5b60c9840b9c8d99d8bc8da3f819fcb1"},{"type":"Feature","properties":{"GEOID":39820,"NAME":"Redding, CA Metro Area","category":"investment","state":"CA","state0":"CA"},"geometry":{"type":"Point","coordinates":[-122.043556,40.760514]},"id":"5bb3191f4c00a70d5221b4ad6a47d7b3"},{"type":"Feature","properties":{"GEOID":32900,"NAME":"Merced, CA Metro Area","category":"investment","state":"CA","state0":"CA"},"geometry":{"type":"Point","coordinates":[-120.722802,37.194806]},"id":"5bc7189ed3d7d507b1088de3248f8009"},{"type":"Feature","properties":{"GEOID":15180,"NAME":"Brownsville-Harlingen, TX Metro Area","category":"opportunity","state":"TX","state0":"TX"},"geometry":{"type":"Point","coordinates":[-97.478958,26.102923]},"id":"5c56aaad231a3e3a0d47837f26f39a33"},{"type":"Feature","properties":{"GEOID":46540,"NAME":"Utica-Rome, NY Metro Area","category":"capitalized","state":"NY","state0":"NY"},"geometry":{"type":"Point","coordinates":[-75.173169,43.332289]},"id":"5c7833ce918b05f4a281243c1f6af511"},{"type":"Feature","properties":{"GEOID":44060,"NAME":"Spokane-Spokane Valley, WA Metro Area","category":"capitalized","state":"WA","state0":"WA"},"geometry":{"type":"Point","coordinates":[-117.573219,48.189041]},"id":"5cbf4c2b0865d549d389751e44cd916d"},{"type":"Feature","properties":{"GEOID":34820,"NAME":"Myrtle Beach-Conway-North Myrtle Beach, SC-NC Metro Area","category":"capitalized","state":"SC-NC","state0":"SC","state1":"NC"},"geometry":{"type":"Point","coordinates":[-78.612724,33.969095]},"id":"5dcad904854b1712ef7bf9bf94b328b9"},{"type":"Feature","properties":{"GEOID":34740,"NAME":"Muskegon, MI Metro Area","category":"opportunity","state":"MI","state0":"MI"},"geometry":{"type":"Point","coordinates":[-86.2484,43.2342]},"id":"5e385ba58afe0a3f6b5bb7c4fe1adfe9"},{"type":"Feature","properties":{"GEOID":19740,"NAME":"Denver-Aurora-Lakewood, CO Metro Area","category":"capitalized","state":"CO","state0":"CO"},"geometry":{"type":"Point","coordinates":[-104.901209,39.434749]},"id":"5eb4fc4e8ff9d950b7444ba49624ad80"},{"type":"Feature","properties":{"GEOID":25500,"NAME":"Harrisonburg, VA Metro Area","category":"investment","state":"VA","state0":"VA"},"geometry":{"type":"Point","coordinates":[-78.885321,38.507585]},"id":"5fd53df7f8dc7ee09749f044f95be143"},{"type":"Feature","properties":{"GEOID":29820,"NAME":"Las Vegas-Henderson-Paradise, NV Metro Area","category":"capitalized","state":"NV","state0":"NV"},"geometry":{"type":"Point","coordinates":[-115.013812,36.214257]},"id":"606f95afe68b99aa682a312e90040d51"},{"type":"Feature","properties":{"GEOID":45820,"NAME":"Topeka, KS Metro Area","category":"opportunity","state":"KS","state0":"KS"},"geometry":{"type":"Point","coordinates":[-95.802639,39.041389]},"id":"618a6ec623379fea5f265b9aff88055d"},{"type":"Feature","properties":{"GEOID":21020,"NAME":"Elizabeth City, NC Micro Area","category":"opportunity","state":"NC","state0":"NC"},"geometry":{"type":"Point","coordinates":[-76.260696,36.265184]},"id":"61d4a98f4641a0aad8025dd7024c1e66"},{"type":"Feature","properties":{"GEOID":24940,"NAME":"Greenwood, SC Micro Area","category":"investment","state":"SC","state0":"SC"},"geometry":{"type":"Point","coordinates":[-82.296677,34.190755]},"id":"62a0576a4fb7cb8c727b4767d84d984e"},{"type":"Feature","properties":{"GEOID":32820,"NAME":"Memphis, TN-MS-AR Metro Area","category":"opportunity","state":"TN-MS-AR","state0":"TN","state1":"MS","state2":"AR"},"geometry":{"type":"Point","coordinates":[-89.821816,35.008557]},"id":"6385e5589e9d14973acee693a7222f50"},{"type":"Feature","properties":{"GEOID":26140,"NAME":"Homosassa Springs, FL Metro Area","category":"capitalized","state":"FL","state0":"FL"},"geometry":{"type":"Point","coordinates":[-82.52481,28.84364]},"id":"639087feee386bdd8f48b0f4326af6d7"},{"type":"Feature","properties":{"GEOID":41620,"NAME":"Salt Lake City, UT Metro Area","category":"capitalized","state":"UT","state0":"UT"},"geometry":{"type":"Point","coordinates":[-112.953253,40.572887]},"id":"63b594777ee143f8a2c2ced0cc916302"},{"type":"Feature","properties":{"GEOID":10140,"NAME":"Aberdeen, WA Micro Area","category":"capitalized","state":"WA","state0":"WA"},"geometry":{"type":"Point","coordinates":[-123.826655,47.113999]},"id":"645cc6373dec0e37903fc9295f63f541"},{"type":"Feature","properties":{"GEOID":41180,"NAME":"St. Louis, MO-IL Metro Area","category":"capitalized","state":"MO-IL","state0":"MO","state1":"IL"},"geometry":{"type":"Point","coordinates":[-90.345956,38.740372]},"id":"6462cd7bdfc40224a6ddfdbe45482511"},{"type":"Feature","properties":{"GEOID":39740,"NAME":"Reading, PA Metro Area","category":"capitalized","state":"PA","state0":"PA"},"geometry":{"type":"Point","coordinates":[-75.92686,40.413957]},"id":"65fcd72692d693e8cdfee7a46f688e85"},{"type":"Feature","properties":{"GEOID":39540,"NAME":"Racine, WI Metro Area","category":"capitalized","state":"WI","state0":"WI"},"geometry":{"type":"Point","coordinates":[-87.7829,42.7261]},"id":"66afd39dd95c41e6835c15bf46a5ff03"},{"type":"Feature","properties":{"GEOID":37340,"NAME":"Palm Bay-Melbourne-Titusville, FL Metro Area","category":"capitalized","state":"FL","state0":"FL"},"geometry":{"type":"Point","coordinates":[-80.700331,28.298304]},"id":"66b9d17a63a269814ba631a584a94073"},{"type":"Feature","properties":{"GEOID":10540,"NAME":"Albany, OR Metro Area","category":"capitalized","state":"OR","state0":"OR"},"geometry":{"type":"Point","coordinates":[-122.537208,44.488898]},"id":"6728500d0cb6e1d7201dc09f99ff02cc"},{"type":"Feature","properties":{"GEOID":17060,"NAME":"Chillicothe, OH Micro Area","category":"investment","state":"OH","state0":"OH"},"geometry":{"type":"Point","coordinates":[-83.059581,39.323818]},"id":"67b74ac220e9f1d9dbb0decdc51fcc22"},{"type":"Feature","properties":{"GEOID":19060,"NAME":"Cumberland, MD-WV Metro Area","category":"growth","state":"MD-WV","state0":"MD","state1":"WV"},"geometry":{"type":"Point","coordinates":[-78.807082,39.532185]},"id":"68fa67562ffc07ad71171b012c02fedf"},{"type":"Feature","properties":{"GEOID":16180,"NAME":"Carson City, NV Metro Area","category":"capitalized","state":"NV","state0":"NV"},"geometry":{"type":"Point","coordinates":[-119.747379,39.15306]},"id":"6999e4cd98d7dd4417e5ae3415fdb299"},{"type":"Feature","properties":{"GEOID":19500,"NAME":"Decatur, IL Metro Area","category":"capitalized","state":"IL","state0":"IL"},"geometry":{"type":"Point","coordinates":[-88.961529,39.860237]},"id":"69c3eee01c33412208314a1d2e890cc9"},{"type":"Feature","properties":{"GEOID":12700,"NAME":"Barnstable Town, MA Metro Area","category":"capitalized","state":"MA","state0":"MA"},"geometry":{"type":"Point","coordinates":[-70.21188,41.799014]},"id":"69e75da30d34d9c471209ca0b1e76716"},{"type":"Feature","properties":{"GEOID":40380,"NAME":"Rochester, NY Metro Area","category":"capitalized","state":"NY","state0":"NY"},"geometry":{"type":"Point","coordinates":[-77.523257,43.148038]},"id":"6a623dc17364913ed2e36068ffb49486"},{"type":"Feature","properties":{"GEOID":21300,"NAME":"Elmira, NY Metro Area","category":"capitalized","state":"NY","state0":"NY"},"geometry":{"type":"Point","coordinates":[-76.747179,42.15528]},"id":"6ae12d5dec8499f8d6dfa57646ad6062"},{"type":"Feature","properties":{"GEOID":48980,"NAME":"Wilson, NC Micro Area","category":"opportunity","state":"NC","state0":"NC"},"geometry":{"type":"Point","coordinates":[-77.921598,35.700357]},"id":"6c1d7102ba5ec3e1ad2532a468075e19"},{"type":"Feature","properties":{"GEOID":31980,"NAME":"Marion, IN Micro Area","category":"investment","state":"IN","state0":"IN"},"geometry":{"type":"Point","coordinates":[-85.654946,40.515758]},"id":"6c62f8a6445d20a8df1be6e97264f5a2"},{"type":"Feature","properties":{"GEOID":28060,"NAME":"Kalispell, MT Micro Area","category":"growth","state":"MT","state0":"MT"},"geometry":{"type":"Point","coordinates":[-114.054295,48.314678]},"id":"6c97ed0a5ca0dba3466c7d87c785d294"},{"type":"Feature","properties":{"GEOID":31860,"NAME":"Mankato-North Mankato, MN Metro Area","category":"capitalized","state":"MN","state0":"MN"},"geometry":{"type":"Point","coordinates":[-94.147801,44.15481]},"id":"6d159792cfc317b16126f886015e4a1c"},{"type":"Feature","properties":{"GEOID":19380,"NAME":"Dayton, OH Metro Area","category":"capitalized","state":"OH","state0":"OH"},"geometry":{"type":"Point","coordinates":[-84.141813,39.828854]},"id":"6ed37d9eaa9c7f83bc34eca3f6b7ef20"},{"type":"Feature","properties":{"GEOID":12180,"NAME":"Auburn, NY Micro Area","category":"investment","state":"NY","state0":"NY"},"geometry":{"type":"Point","coordinates":[-76.574587,43.008546]},"id":"6f4a5c2ea792124182cbd806307d9e4f"},{"type":"Feature","properties":{"GEOID":39980,"NAME":"Richmond, IN Micro Area","category":"investment","state":"IN","state0":"IN"},"geometry":{"type":"Point","coordinates":[-85.006735,39.863091]},"id":"6feaa00664ce598c612afb6751d38f68"},{"type":"Feature","properties":{"GEOID":40420,"NAME":"Rockford, IL Metro Area","category":"capitalized","state":"IL","state0":"IL"},"geometry":{"type":"Point","coordinates":[-89.042914,42.331183]},"id":"6ff14ec1c273c1920470c56dee1be58a"},{"type":"Feature","properties":{"GEOID":35900,"NAME":"North Wilkesboro, NC Micro Area","category":"opportunity","state":"NC","state0":"NC"},"geometry":{"type":"Point","coordinates":[-81.166095,36.208883]},"id":"702a5dab5a5538c89796b932aca5fb45"},{"type":"Feature","properties":{"GEOID":48020,"NAME":"Watertown-Fort Atkinson, WI Micro Area","category":"investment","state":"WI","state0":"WI"},"geometry":{"type":"Point","coordinates":[-88.773985,43.013804]},"id":"70342a63249b83c73ac5615774c4e10e"},{"type":"Feature","properties":{"GEOID":40660,"NAME":"Rome, GA Metro Area","category":"opportunity","state":"GA","state0":"GA"},"geometry":{"type":"Point","coordinates":[-85.213685,34.263692]},"id":"703efd836508f7d7eec0890bfe9a0058"},{"type":"Feature","properties":{"GEOID":38540,"NAME":"Pocatello, ID Metro Area","category":"capitalized","state":"ID","state0":"ID"},"geometry":{"type":"Point","coordinates":[-112.228982,42.692921]},"id":"719762123a54eea9d1f9541cde9c3574"},{"type":"Feature","properties":{"GEOID":48540,"NAME":"Wheeling, WV-OH Metro Area","category":"investment","state":"WV-OH","state0":"WV","state1":"OH"},"geometry":{"type":"Point","coordinates":[-80.847011,39.975509]},"id":"71e0b23fd3c43b900b416454d25c8531"},{"type":"Feature","properties":{"GEOID":20100,"NAME":"Dover, DE Metro Area","category":"capitalized","state":"DE","state0":"DE"},"geometry":{"type":"Point","coordinates":[-75.502982,39.097088]},"id":"722ddfa7f73c818bf702581fb43c2111"},{"type":"Feature","properties":{"GEOID":42680,"NAME":"Sebastian-Vero Beach, FL Metro Area","category":"capitalized","state":"FL","state0":"FL"},"geometry":{"type":"Point","coordinates":[-80.574789,27.700528]},"id":"7235e06725430b6a5dc02d704bda4034"},{"type":"Feature","properties":{"GEOID":34100,"NAME":"Morristown, TN Metro Area","category":"investment","state":"TN","state0":"TN"},"geometry":{"type":"Point","coordinates":[-83.376546,36.115484]},"id":"725b583697830603939b83905ad5435a"},{"type":"Feature","properties":{"GEOID":39060,"NAME":"Pottsville, PA Micro Area","category":"investment","state":"PA","state0":"PA"},"geometry":{"type":"Point","coordinates":[-76.217788,40.703682]},"id":"725ee53b25f2c1986e1af0fc3331e02b"},{"type":"Feature","properties":{"GEOID":36220,"NAME":"Odessa, TX Metro Area","category":"investment","state":"TX","state0":"TX"},"geometry":{"type":"Point","coordinates":[-102.542507,31.865301]},"id":"73fdcf885620e748f73ad58088eb88c6"},{"type":"Feature","properties":{"GEOID":29180,"NAME":"Lafayette, LA Metro Area","category":"investment","state":"LA","state0":"LA"},"geometry":{"type":"Point","coordinates":[-92.04935,29.957773]},"id":"7425578e38864d7b4218d8592a970aaf"},{"type":"Feature","properties":{"GEOID":16300,"NAME":"Cedar Rapids, IA Metro Area","category":"capitalized","state":"IA","state0":"IA"},"geometry":{"type":"Point","coordinates":[-91.631144,42.086329]},"id":"746e1a25e638c1a58a92e60170391167"},{"type":"Feature","properties":{"GEOID":22840,"NAME":"Fort Payne, AL Micro Area","category":"opportunity","state":"AL","state0":"AL"},"geometry":{"type":"Point","coordinates":[-85.803992,34.460929]},"id":"74728dcf4dd80299d71ef5c09c699cb5"},{"type":"Feature","properties":{"GEOID":25260,"NAME":"Hanford-Corcoran, CA Metro Area","category":"investment","state":"CA","state0":"CA"},"geometry":{"type":"Point","coordinates":[-119.81553,36.072478]},"id":"74caa88f9082639d7b24e67dd690594f"},{"type":"Feature","properties":{"GEOID":39580,"NAME":"Raleigh, NC Metro Area","category":"capitalized","state":"NC","state0":"NC"},"geometry":{"type":"Point","coordinates":[-78.460441,35.756746]},"id":"74d926ceecaab6cabb372f72c1e564ca"},{"type":"Feature","properties":{"GEOID":33980,"NAME":"Morehead City, NC Micro Area","category":"capitalized","state":"NC","state0":"NC"},"geometry":{"type":"Point","coordinates":[-76.53586,34.858343]},"id":"74ffac03c0ac173876736829e2e3d930"},{"type":"Feature","properties":{"GEOID":44140,"NAME":"Springfield, MA Metro Area","category":"capitalized","state":"MA","state0":"MA"},"geometry":{"type":"Point","coordinates":[-72.632047,42.2478]},"id":"750a433ab3ba094ef0fb053ac062216a"},{"type":"Feature","properties":{"GEOID":14020,"NAME":"Bloomington, IN Metro Area","category":"growth","state":"IN","state0":"IN"},"geometry":{"type":"Point","coordinates":[-86.671754,39.241736]},"id":"754058a94b874d3eaa84ab7736239bbd"},{"type":"Feature","properties":{"GEOID":42660,"NAME":"Seattle-Tacoma-Bellevue, WA Metro Area","category":"capitalized","state":"WA","state0":"WA"},"geometry":{"type":"Point","coordinates":[-121.833996,47.490599]},"id":"76af4f521be19094a42c8c8d15f537b8"},{"type":"Feature","properties":{"GEOID":29740,"NAME":"Las Cruces, NM Metro Area","category":"investment","state":"NM","state0":"NM"},"geometry":{"type":"Point","coordinates":[-106.834969,32.349919]},"id":"76c60a48cd3b9a8ed6bba5a854b0b3ea"},{"type":"Feature","properties":{"GEOID":30940,"NAME":"London, KY Micro Area","category":"investment","state":"KY","state0":"KY"},"geometry":{"type":"Point","coordinates":[-84.045368,36.92061]},"id":"76e57843208c197f9a1901b914fdaf7f"},{"type":"Feature","properties":{"GEOID":46180,"NAME":"Tupelo, MS Micro Area","category":"investment","state":"MS","state0":"MS"},"geometry":{"type":"Point","coordinates":[-88.682907,34.268271]},"id":"779f5eb9bc8b3dcf568382c3fea1f073"},{"type":"Feature","properties":{"GEOID":27500,"NAME":"Janesville-Beloit, WI Metro Area","category":"opportunity","state":"WI","state0":"WI"},"geometry":{"type":"Point","coordinates":[-89.075284,42.66988]},"id":"77dd937b0b57502488d019ddaa813fbf"},{"type":"Feature","properties":{"GEOID":24540,"NAME":"Greeley, CO Metro Area","category":"capitalized","state":"CO","state0":"CO"},"geometry":{"type":"Point","coordinates":[-104.383666,40.555961]},"id":"7864d2a9e6c17f2dabc75bb94cdfaeef"},{"type":"Feature","properties":{"GEOID":10900,"NAME":"Allentown-Bethlehem-Easton, PA-NJ Metro Area","category":"capitalized","state":"PA-NJ","state0":"PA","state1":"NJ"},"geometry":{"type":"Point","coordinates":[-75.398158,40.789339]},"id":"786b4a63fa8f766a603bbe107aadceb5"},{"type":"Feature","properties":{"GEOID":42100,"NAME":"Santa Cruz-Watsonville, CA Metro Area","category":"capitalized","state":"CA","state0":"CA"},"geometry":{"type":"Point","coordinates":[-122.007205,37.012488]},"id":"791a7bf3e58d0bd341afd9036bef47d7"},{"type":"Feature","properties":{"GEOID":40080,"NAME":"Richmond-Berea, KY Micro Area","category":"opportunity","state":"KY","state0":"KY"},"geometry":{"type":"Point","coordinates":[-84.296264,37.57168]},"id":"7a3eb6ff15f45c028d5285ad426d03c2"},{"type":"Feature","properties":{"GEOID":46300,"NAME":"Twin Falls, ID Micro Area","category":"investment","state":"ID","state0":"ID"},"geometry":{"type":"Point","coordinates":[-114.568729,42.440397]},"id":"7a6b4d619622cda2a9d8e0a3e2277914"},{"type":"Feature","properties":{"GEOID":22100,"NAME":"Farmington, MO Micro Area","category":"investment","state":"MO","state0":"MO"},"geometry":{"type":"Point","coordinates":[-90.473868,37.810707]},"id":"7c4a9b661f57f6817fab6bd66057661f"},{"type":"Feature","properties":{"GEOID":16700,"NAME":"Charleston-North Charleston, SC Metro Area","category":"capitalized","state":"SC","state0":"SC"},"geometry":{"type":"Point","coordinates":[-80.006109,33.005815]},"id":"7e8b7da6a44c440062a3a600c54842b3"},{"type":"Feature","properties":{"GEOID":49300,"NAME":"Wooster, OH Micro Area","category":"growth","state":"OH","state0":"OH"},"geometry":{"type":"Point","coordinates":[-81.887194,40.829661]},"id":"7f74b1cbf4f23f2ce1ee2a9ba3807088"},{"type":"Feature","properties":{"GEOID":36740,"NAME":"Orlando-Kissimmee-Sanford, FL Metro Area","category":"capitalized","state":"FL","state0":"FL"},"geometry":{"type":"Point","coordinates":[-81.355876,28.434348]},"id":"7fa780ab8683b5fc331a7c5ebad0a319"},{"type":"Feature","properties":{"GEOID":15540,"NAME":"Burlington-South Burlington, VT Metro Area","category":"growth","state":"VT","state0":"VT"},"geometry":{"type":"Point","coordinates":[-73.041171,44.689117]},"id":"807689c481c22469adbc26a5712d858e"},{"type":"Feature","properties":{"GEOID":41500,"NAME":"Salinas, CA Metro Area","category":"investment","state":"CA","state0":"CA"},"geometry":{"type":"Point","coordinates":[-121.315572,36.240107]},"id":"80ae18924792328a9229389514f81ea8"},{"type":"Feature","properties":{"GEOID":40260,"NAME":"Roanoke Rapids, NC Micro Area","category":"investment","state":"NC","state0":"NC"},"geometry":{"type":"Point","coordinates":[-77.542757,36.320576]},"id":"815cfb6f584ddf1bd8483c5337232a8e"},{"type":"Feature","properties":{"GEOID":42220,"NAME":"Santa Rosa, CA Metro Area","category":"capitalized","state":"CA","state0":"CA"},"geometry":{"type":"Point","coordinates":[-122.92611,38.525182]},"id":"815f6ba482f8a607e7291d878dc709eb"},{"type":"Feature","properties":{"GEOID":31900,"NAME":"Mansfield, OH Metro Area","category":"investment","state":"OH","state0":"OH"},"geometry":{"type":"Point","coordinates":[-82.542781,40.774159]},"id":"81b6057a0594e347f5df4a971f3c1a84"},{"type":"Feature","properties":{"GEOID":46660,"NAME":"Valdosta, GA Metro Area","category":"investment","state":"GA","state0":"GA"},"geometry":{"type":"Point","coordinates":[-83.242132,30.827498]},"id":"81d3e9393ab7c583ba18420c8b36ed7a"},{"type":"Feature","properties":{"GEOID":14700,"NAME":"Branson, MO Micro Area","category":"investment","state":"MO","state0":"MO"},"geometry":{"type":"Point","coordinates":[-93.223561,36.695008]},"id":"81e473b06858c4a10b7e6d3f560d9539"},{"type":"Feature","properties":{"GEOID":31460,"NAME":"Madera, CA Metro Area","category":"investment","state":"CA","state0":"CA"},"geometry":{"type":"Point","coordinates":[-119.749802,37.209821]},"id":"82544cbe1f4f96651af17545ba1048b8"},{"type":"Feature","properties":{"GEOID":28740,"NAME":"Kingston, NY Metro Area","category":"capitalized","state":"NY","state0":"NY"},"geometry":{"type":"Point","coordinates":[-74.265458,41.947212]},"id":"82a80969f950dac4056f2210ca3db4ea"},{"type":"Feature","properties":{"GEOID":34060,"NAME":"Morgantown, WV Metro Area","category":"growth","state":"WV","state0":"WV"},"geometry":{"type":"Point","coordinates":[-79.801912,39.525155]},"id":"83528f20d95565906658f4b6f9becbb6"},{"type":"Feature","properties":{"GEOID":29420,"NAME":"Lake Havasu City-Kingman, AZ Metro Area","category":"investment","state":"AZ","state0":"AZ"},"geometry":{"type":"Point","coordinates":[-113.749689,35.717705]},"id":"83b6261df7c85271df47fe26cd0542fc"},{"type":"Feature","properties":{"GEOID":24300,"NAME":"Grand Junction, CO Metro Area","category":"capitalized","state":"CO","state0":"CO"},"geometry":{"type":"Point","coordinates":[-108.461893,39.019421]},"id":"8424290f671f61de73d2b3337ed23cf3"},{"type":"Feature","properties":{"GEOID":46020,"NAME":"Truckee-Grass Valley, CA Micro Area","category":"growth","state":"CA","state0":"CA"},"geometry":{"type":"Point","coordinates":[-120.771343,39.297508]},"id":"8428dfb6d05a6c50d5ce3f58ce7bb76f"},{"type":"Feature","properties":{"GEOID":10420,"NAME":"Akron, OH Metro Area","category":"capitalized","state":"OH","state0":"OH"},"geometry":{"type":"Point","coordinates":[-81.35011,41.146639]},"id":"855ade64fd987730019a020a7886dbf4"},{"type":"Feature","properties":{"GEOID":13380,"NAME":"Bellingham, WA Metro Area","category":"capitalized","state":"WA","state0":"WA"},"geometry":{"type":"Point","coordinates":[-121.836432,48.842653]},"id":"865e68b71c0152bb6cf026f9fa7fd64b"},{"type":"Feature","properties":{"GEOID":45300,"NAME":"Tampa-St. Petersburg-Clearwater, FL Metro Area","category":"capitalized","state":"FL","state0":"FL"},"geometry":{"type":"Point","coordinates":[-82.465286,28.125907]},"id":"8683c244f8af19527ebf1d19a41b0865"},{"type":"Feature","properties":{"GEOID":18020,"NAME":"Columbus, IN Metro Area","category":"growth","state":"IN","state0":"IN"},"geometry":{"type":"Point","coordinates":[-85.897999,39.205843]},"id":"8799f7f55f18debe1930d8a907e73958"},{"type":"Feature","properties":{"GEOID":22500,"NAME":"Florence, SC Metro Area","category":"investment","state":"SC","state0":"SC"},"geometry":{"type":"Point","coordinates":[-79.806215,34.153551]},"id":"87b74ec7bc7a3e8cb650a8dd8a78b4f9"},{"type":"Feature","properties":{"GEOID":42540,"NAME":"Scranton--Wilkes-Barre--Hazleton, PA Metro Area","category":"investment","state":"PA","state0":"PA"},"geometry":{"type":"Point","coordinates":[-75.898188,41.322881]},"id":"87d941854b2b4b1d4759b0845e4039f6"},{"type":"Feature","properties":{"GEOID":28940,"NAME":"Knoxville, TN Metro Area","category":"capitalized","state":"TN","state0":"TN"},"geometry":{"type":"Point","coordinates":[-84.136114,36.044462]},"id":"897a959d6233ed3b74d3021ea71b0789"},{"type":"Feature","properties":{"GEOID":44420,"NAME":"Staunton-Waynesboro, VA Metro Area","category":"investment","state":"VA","state0":"VA"},"geometry":{"type":"Point","coordinates":[-79.127632,38.160958]},"id":"8aa1941fa6c2126014314d94d801a019"},{"type":"Feature","properties":{"GEOID":17900,"NAME":"Columbia, SC Metro Area","category":"growth","state":"SC","state0":"SC"},"geometry":{"type":"Point","coordinates":[-81.040596,34.084176]},"id":"8af14e96acd876be00c8c92a55aa9fa2"},{"type":"Feature","properties":{"GEOID":27900,"NAME":"Joplin, MO Metro Area","category":"investment","state":"MO","state0":"MO"},"geometry":{"type":"Point","coordinates":[-94.339736,37.055546]},"id":"8b30e1bbdfcf0138a4ffaa69471d182b"},{"type":"Feature","properties":{"GEOID":48900,"NAME":"Wilmington, NC Metro Area","category":"capitalized","state":"NC","state0":"NC"},"geometry":{"type":"Point","coordinates":[-77.889634,34.426033]},"id":"8c67a1b974e0b71e2633c83878a50a8a"},{"type":"Feature","properties":{"GEOID":21140,"NAME":"Elkhart-Goshen, IN Metro Area","category":"investment","state":"IN","state0":"IN"},"geometry":{"type":"Point","coordinates":[-85.863986,41.600693]},"id":"8c7bb36cb591d64688eb672774ab102a"},{"type":"Feature","properties":{"GEOID":31020,"NAME":"Longview, WA Metro Area","category":"opportunity","state":"WA","state0":"WA"},"geometry":{"type":"Point","coordinates":[-122.67846,46.196785]},"id":"8d74989c33d9987911f1e411a7a697bd"},{"type":"Feature","properties":{"GEOID":19820,"NAME":"Detroit-Warren-Dearborn, MI Metro Area","category":"capitalized","state":"MI","state0":"MI"},"geometry":{"type":"Point","coordinates":[-83.200846,42.721848]},"id":"8d8a3e72c5b3961b4f2337d7d089551f"},{"type":"Feature","properties":{"GEOID":42860,"NAME":"Seneca, SC Micro Area","category":"investment","state":"SC","state0":"SC"},"geometry":{"type":"Point","coordinates":[-83.061543,34.748771]},"id":"8d98f21e19c0303f0b29a9bc67743acc"},{"type":"Feature","properties":{"GEOID":47300,"NAME":"Visalia-Porterville, CA Metro Area","category":"investment","state":"CA","state0":"CA"},"geometry":{"type":"Point","coordinates":[-118.781055,36.228834]},"id":"8e06cfdf77b83145c0ffa854a536db2a"},{"type":"Feature","properties":{"GEOID":26090,"NAME":"Holland, MI Micro Area","category":"investment","state":"MI","state0":"MI"},"geometry":{"type":"Point","coordinates":[-86.634745,42.595787]},"id":"8e305a0df5638949cac0e731a4d9a1fd"},{"type":"Feature","properties":{"GEOID":37460,"NAME":"Panama City, FL Metro Area","category":"capitalized","state":"FL","state0":"FL"},"geometry":{"type":"Point","coordinates":[-85.474971,30.101095]},"id":"8ea5de0803202310f6685f9b7a327a2b"},{"type":"Feature","properties":{"GEOID":39140,"NAME":"Prescott, AZ Metro Area","category":"investment","state":"AZ","state0":"AZ"},"geometry":{"type":"Point","coordinates":[-112.577385,34.631212]},"id":"8ed944dab4b506a096282a28abe177f2"},{"type":"Feature","properties":{"GEOID":44660,"NAME":"Stillwater, OK Micro Area","category":"investment","state":"OK","state0":"OK"},"geometry":{"type":"Point","coordinates":[-96.975255,36.079225]},"id":"8f3a981ad4c209f34364687d4a63d647"},{"type":"Feature","properties":{"GEOID":24060,"NAME":"Glenwood Springs, CO Micro Area","category":"opportunity","state":"CO","state0":"CO"},"geometry":{"type":"Point","coordinates":[-107.667311,39.509542]},"id":"8ff1864863de86642090359f6cd44f9e"},{"type":"Feature","properties":{"GEOID":17660,"NAME":"Coeur d'Alene, ID Metro Area","category":"growth","state":"ID","state0":"ID"},"geometry":{"type":"Point","coordinates":[-116.694918,47.677113]},"id":"911c215ae261cf0cd5c666d5ecb3599f"},{"type":"Feature","properties":{"GEOID":22580,"NAME":"Forest City, NC Micro Area","category":"investment","state":"NC","state0":"NC"},"geometry":{"type":"Point","coordinates":[-81.919582,35.402747]},"id":"9131e074cbdd322e66e7b288cc75e5fe"},{"type":"Feature","properties":{"GEOID":40060,"NAME":"Richmond, VA Metro Area","category":"growth","state":"VA","state0":"VA"},"geometry":{"type":"Point","coordinates":[-77.476009,37.531399]},"id":"9182bfb2617e31d7b99a8080d4101fb2"},{"type":"Feature","properties":{"GEOID":18880,"NAME":"Crestview-Fort Walton Beach-Destin, FL Metro Area","category":"growth","state":"FL","state0":"FL"},"geometry":{"type":"Point","coordinates":[-86.367692,30.641097]},"id":"92bf8202c720c15e31481441db435592"},{"type":"Feature","properties":{"GEOID":48300,"NAME":"Wenatchee, WA Metro Area","category":"capitalized","state":"WA","state0":"WA"},"geometry":{"type":"Point","coordinates":[-120.267544,47.821128]},"id":"92dbb5be1174dc1379869a9178216086"},{"type":"Feature","properties":{"GEOID":24420,"NAME":"Grants Pass, OR Metro Area","category":"investment","state":"OR","state0":"OR"},"geometry":{"type":"Point","coordinates":[-123.571626,42.386981]},"id":"936bff0bd168ddb7e4f7a960375b16f4"},{"type":"Feature","properties":{"GEOID":13180,"NAME":"Beaver Dam, WI Micro Area","category":"investment","state":"WI","state0":"WI"},"geometry":{"type":"Point","coordinates":[-88.704398,43.422662]},"id":"93ee1742c181c6f73965c5c7a4d05201"},{"type":"Feature","properties":{"GEOID":20740,"NAME":"Eau Claire, WI Metro Area","category":"growth","state":"WI","state0":"WI"},"geometry":{"type":"Point","coordinates":[-91.285538,44.938029]},"id":"941723b0047b998da0a7390ea3a2a59f"},{"type":"Feature","properties":{"GEOID":42200,"NAME":"Santa Maria-Santa Barbara, CA Metro Area","category":"capitalized","state":"CA","state0":"CA"},"geometry":{"type":"Point","coordinates":[-120.039973,34.537057]},"id":"94505d0101a305a4d63433f6a2e28e95"},{"type":"Feature","properties":{"GEOID":14580,"NAME":"Bozeman, MT Micro Area","category":"growth","state":"MT","state0":"MT"},"geometry":{"type":"Point","coordinates":[-111.163921,45.518054]},"id":"94a58d503af941a8f190529f54f81f3a"},{"type":"Feature","properties":{"GEOID":26900,"NAME":"Indianapolis-Carmel-Anderson, IN Metro Area","category":"capitalized","state":"IN","state0":"IN"},"geometry":{"type":"Point","coordinates":[-86.204541,39.744932]},"id":"9537a7135bb27d5d41f99ddf2f18dda4"},{"type":"Feature","properties":{"GEOID":39500,"NAME":"Quincy, IL-MO Micro Area","category":"investment","state":"IL-MO","state0":"IL","state1":"MO"},"geometry":{"type":"Point","coordinates":[-91.389778,40.027125]},"id":"9562f17862019ef79107c355d6874779"},{"type":"Feature","properties":{"GEOID":46220,"NAME":"Tuscaloosa, AL Metro Area","category":"investment","state":"AL","state0":"AL"},"geometry":{"type":"Point","coordinates":[-87.715166,33.160611]},"id":"95aa1b97f859f1ca7fdca25737179de4"},{"type":"Feature","properties":{"GEOID":33100,"NAME":"Miami-Fort Lauderdale-West Palm Beach, FL Metro Area","category":"capitalized","state":"FL","state0":"FL"},"geometry":{"type":"Point","coordinates":[-80.478755,26.101828]},"id":"95bd90a602a31c1db0b69c97a06a6dce"},{"type":"Feature","properties":{"GEOID":21500,"NAME":"Erie, PA Metro Area","category":"capitalized","state":"PA","state0":"PA"},"geometry":{"type":"Point","coordinates":[-80.096386,42.117952]},"id":"96d15a31b083e3308ee45867fc00c73d"},{"type":"Feature","properties":{"GEOID":11980,"NAME":"Athens, TX Micro Area","category":"investment","state":"TX","state0":"TX"},"geometry":{"type":"Point","coordinates":[-95.853418,32.211633]},"id":"97125dc5363ef629b7807ba018781e4e"},{"type":"Feature","properties":{"GEOID":27780,"NAME":"Johnstown, PA Metro Area","category":"investment","state":"PA","state0":"PA"},"geometry":{"type":"Point","coordinates":[-78.710463,40.510312]},"id":"978350a6200e24770f4ac0d64cce8a8f"},{"type":"Feature","properties":{"GEOID":36260,"NAME":"Ogden-Clearfield, UT Metro Area","category":"capitalized","state":"UT","state0":"UT"},"geometry":{"type":"Point","coordinates":[-113.126808,41.300466]},"id":"98bdc84eb6a3dfe1424abfa7b779aaed"},{"type":"Feature","properties":{"GEOID":23540,"NAME":"Gainesville, FL Metro Area","category":"growth","state":"FL","state0":"FL"},"geometry":{"type":"Point","coordinates":[-82.479869,29.677957]},"id":"992f263996b1601ed475470f2551825d"},{"type":"Feature","properties":{"GEOID":37860,"NAME":"Pensacola-Ferry Pass-Brent, FL Metro Area","category":"capitalized","state":"FL","state0":"FL"},"geometry":{"type":"Point","coordinates":[-87.161828,30.655401]},"id":"99c00f8dd3630b5f66ce33a6aea9887c"},{"type":"Feature","properties":{"GEOID":28420,"NAME":"Kennewick-Richland, WA Metro Area","category":"capitalized","state":"WA","state0":"WA"},"geometry":{"type":"Point","coordinates":[-119.254081,46.363914]},"id":"9a60d83a680c3e1f02267906edbaae3a"},{"type":"Feature","properties":{"GEOID":11540,"NAME":"Appleton, WI Metro Area","category":"capitalized","state":"WI","state0":"WI"},"geometry":{"type":"Point","coordinates":[-88.372326,44.290603]},"id":"9a76c86f2f26cd9d9f517163d1f9cf11"},{"type":"Feature","properties":{"GEOID":12220,"NAME":"Auburn-Opelika, AL Metro Area","category":"capitalized","state":"AL","state0":"AL"},"geometry":{"type":"Point","coordinates":[-85.353048,32.604064]},"id":"9b8879c09af12402b30a1e0bb04dc873"},{"type":"Feature","properties":{"GEOID":31340,"NAME":"Lynchburg, VA Metro Area","category":"investment","state":"VA","state0":"VA"},"geometry":{"type":"Point","coordinates":[-79.216689,37.364926]},"id":"9dfdce65325a5790ff6bc3253ffb7d8a"},{"type":"Feature","properties":{"GEOID":44620,"NAME":"Stevens Point, WI Micro Area","category":"growth","state":"WI","state0":"WI"},"geometry":{"type":"Point","coordinates":[-89.49807,44.476246]},"id":"9e478792f6ce5c53d90ece91adc1a2c3"},{"type":"Feature","properties":{"GEOID":43300,"NAME":"Sherman-Denison, TX Metro Area","category":"opportunity","state":"TX","state0":"TX"},"geometry":{"type":"Point","coordinates":[-96.675693,33.624524]},"id":"9e8b2a3547b2458f6415612ae0329b86"},{"type":"Feature","properties":{"GEOID":36860,"NAME":"Ottawa-Peru, IL Micro Area","category":"investment","state":"IL","state0":"IL"},"geometry":{"type":"Point","coordinates":[-89.173385,41.35649]},"id":"9f6d424a5e2c54a1e7a70ad9cf10c2b0"},{"type":"Feature","properties":{"GEOID":24260,"NAME":"Grand Island, NE Metro Area","category":"investment","state":"NE","state0":"NE"},"geometry":{"type":"Point","coordinates":[-98.272835,41.038567]},"id":"a0d4207dd811b0f2d597c6cab4e71c3f"},{"type":"Feature","properties":{"GEOID":39660,"NAME":"Rapid City, SD Metro Area","category":"growth","state":"SD","state0":"SD"},"geometry":{"type":"Point","coordinates":[-102.916612,44.195108]},"id":"a0fd2b6d443a559e9dbc59cfd6f44182"},{"type":"Feature","properties":{"GEOID":37140,"NAME":"Paducah, KY-IL Micro Area","category":"investment","state":"KY-IL","state0":"KY","state1":"IL"},"geometry":{"type":"Point","coordinates":[-88.656668,37.134181]},"id":"a24b312e19590bd8c3c01b97e4c0e1c2"},{"type":"Feature","properties":{"GEOID":27860,"NAME":"Jonesboro, AR Metro Area","category":"investment","state":"AR","state0":"AR"},"geometry":{"type":"Point","coordinates":[-90.650173,35.69697]},"id":"a311e83016487fc83286460f962d8aa5"},{"type":"Feature","properties":{"GEOID":26420,"NAME":"Houston-The Woodlands-Sugar Land, TX Metro Area","category":"capitalized","state":"TX","state0":"TX"},"geometry":{"type":"Point","coordinates":[-95.353642,29.749593]},"id":"a3157d0d40f978a88473592c94526834"},{"type":"Feature","properties":{"GEOID":44700,"NAME":"Stockton-Lodi, CA Metro Area","category":"capitalized","state":"CA","state0":"CA"},"geometry":{"type":"Point","coordinates":[-121.272244,37.934982]},"id":"a3858850addd1bde8ecb2f72dbcdf19e"},{"type":"Feature","properties":{"GEOID":45540,"NAME":"The Villages, FL Metro Area","category":"capitalized","state":"FL","state0":"FL"},"geometry":{"type":"Point","coordinates":[-82.074703,28.71431]},"id":"a4692548d15003060084f1f02088d952"},{"type":"Feature","properties":{"GEOID":36140,"NAME":"Ocean City, NJ Metro Area","category":"capitalized","state":"NJ","state0":"NJ"},"geometry":{"type":"Point","coordinates":[-74.847716,39.086142]},"id":"a4890be08b75f4a20ccf20e6613f478b"},{"type":"Feature","properties":{"GEOID":14260,"NAME":"Boise City, ID Metro Area","category":"capitalized","state":"ID","state0":"ID"},"geometry":{"type":"Point","coordinates":[-116.141909,43.006648]},"id":"a53310993b67cb61c8eb05c0accecffb"},{"type":"Feature","properties":{"GEOID":25540,"NAME":"Hartford-West Hartford-East Hartford, CT Metro Area","category":"capitalized","state":"CT","state0":"CT"},"geometry":{"type":"Point","coordinates":[-72.573942,41.718601]},"id":"a587b5c7510a3ca8534035cb1fc27848"},{"type":"Feature","properties":{"GEOID":48260,"NAME":"Weirton-Steubenville, WV-OH Metro Area","category":"investment","state":"WV-OH","state0":"WV","state1":"OH"},"geometry":{"type":"Point","coordinates":[-80.701966,40.388914]},"id":"a6339b25b5d4a206915436481bd08949"},{"type":"Feature","properties":{"GEOID":35840,"NAME":"North Port-Sarasota-Bradenton, FL Metro Area","category":"capitalized","state":"FL","state0":"FL"},"geometry":{"type":"Point","coordinates":[-82.319337,27.364247]},"id":"a74bedee76804a63b51cf721c860da29"},{"type":"Feature","properties":{"GEOID":12980,"NAME":"Battle Creek, MI Metro Area","category":"investment","state":"MI","state0":"MI"},"geometry":{"type":"Point","coordinates":[-85.012385,42.24299]},"id":"a75d4ad8d69950d322333d44f6a073f3"},{"type":"Feature","properties":{"GEOID":48580,"NAME":"Whitewater-Elkhorn, WI Micro Area","category":"growth","state":"WI","state0":"WI"},"geometry":{"type":"Point","coordinates":[-88.541731,42.66811]},"id":"a7a648615775378ec777bfcf114f00a8"},{"type":"Feature","properties":{"GEOID":41940,"NAME":"San Jose-Sunnyvale-Santa Clara, CA Metro Area","category":"capitalized","state":"CA","state0":"CA"},"geometry":{"type":"Point","coordinates":[-121.371372,36.908472]},"id":"a807abcd2b9373156bb717121d367c9e"},{"type":"Feature","properties":{"GEOID":38300,"NAME":"Pittsburgh, PA Metro Area","category":"capitalized","state":"PA","state0":"PA"},"geometry":{"type":"Point","coordinates":[-79.828061,40.434338]},"id":"a94aa6d76783f0121664c0be0e8b09d6"},{"type":"Feature","properties":{"GEOID":19300,"NAME":"Daphne-Fairhope-Foley, AL Metro Area","category":"investment","state":"AL","state0":"AL"},"geometry":{"type":"Point","coordinates":[-87.746067,30.659218]},"id":"a964b99eb004c1f48a66b84dda8e3035"},{"type":"Feature","properties":{"GEOID":28660,"NAME":"Killeen-Temple, TX Metro Area","category":"growth","state":"TX","state0":"TX"},"geometry":{"type":"Point","coordinates":[-97.789638,31.20273]},"id":"a984656f3ec85e65c3ed85a154da61ea"},{"type":"Feature","properties":{"GEOID":43100,"NAME":"Sheboygan, WI Metro Area","category":"capitalized","state":"WI","state0":"WI"},"geometry":{"type":"Point","coordinates":[-87.73212,43.7452]},"id":"a9d07625b298858804766ca51625899b"},{"type":"Feature","properties":{"GEOID":28140,"NAME":"Kansas City, MO-KS Metro Area","category":"capitalized","state":"MO-KS","state0":"MO","state1":"KS"},"geometry":{"type":"Point","coordinates":[-94.443824,38.931849]},"id":"aa36eb969cd2c83a60e83ea0670d78c9"},{"type":"Feature","properties":{"GEOID":26820,"NAME":"Idaho Falls, ID Metro Area","category":"capitalized","state":"ID","state0":"ID"},"geometry":{"type":"Point","coordinates":[-112.420919,43.620423]},"id":"aae88885773fa0d4c2409535998f59df"},{"type":"Feature","properties":{"GEOID":11460,"NAME":"Ann Arbor, MI Metro Area","category":"capitalized","state":"MI","state0":"MI"},"geometry":{"type":"Point","coordinates":[-83.844634,42.252327]},"id":"aaeda31631c5098e30eb72d4ff8d3e49"},{"type":"Feature","properties":{"GEOID":34180,"NAME":"Moses Lake, WA Micro Area","category":"opportunity","state":"WA","state0":"WA"},"geometry":{"type":"Point","coordinates":[-119.467788,47.213633]},"id":"ad2dab1c2ceae1f75ac8b3797302f7b3"},{"type":"Feature","properties":{"GEOID":45060,"NAME":"Syracuse, NY Metro Area","category":"capitalized","state":"NY","state0":"NY"},"geometry":{"type":"Point","coordinates":[-76.196134,43.006516]},"id":"ad8507ef0b193bf13672fe28c635275b"},{"type":"Feature","properties":{"GEOID":32300,"NAME":"Martinsville, VA Micro Area","category":"opportunity","state":"VA","state0":"VA"},"geometry":{"type":"Point","coordinates":[-79.873944,36.682647]},"id":"af044fd97ef65b56b3ef28ad9921d431"},{"type":"Feature","properties":{"GEOID":43140,"NAME":"Shelby, NC Micro Area","category":"opportunity","state":"NC","state0":"NC"},"geometry":{"type":"Point","coordinates":[-81.557114,35.33463]},"id":"b061dc110773b964317bbef050cebf44"},{"type":"Feature","properties":{"GEOID":16940,"NAME":"Cheyenne, WY Metro Area","category":"growth","state":"WY","state0":"WY"},"geometry":{"type":"Point","coordinates":[-104.660395,41.29283]},"id":"b0c765f176ef6313fefe7ffbf45e4f1b"},{"type":"Feature","properties":{"GEOID":35380,"NAME":"New Orleans-Metairie, LA Metro Area","category":"opportunity","state":"LA","state0":"LA"},"geometry":{"type":"Point","coordinates":[-89.701382,29.805532]},"id":"b16770f9cbc953797b1511c6c0415654"},{"type":"Feature","properties":{"GEOID":23900,"NAME":"Gettysburg, PA Metro Area","category":"capitalized","state":"PA","state0":"PA"},"geometry":{"type":"Point","coordinates":[-77.21773,39.869471]},"id":"b183c8cc6f66023bf4dc9842b984febb"},{"type":"Feature","properties":{"GEOID":32780,"NAME":"Medford, OR Metro Area","category":"growth","state":"OR","state0":"OR"},"geometry":{"type":"Point","coordinates":[-122.675685,42.411628]},"id":"b252f1f875a1a899d8adaaca5f78f2ea"},{"type":"Feature","properties":{"GEOID":24660,"NAME":"Greensboro-High Point, NC Metro Area","category":"opportunity","state":"NC","state0":"NC"},"geometry":{"type":"Point","coordinates":[-79.792633,36.025204]},"id":"b2dbc221f3e7d91b9b46f445cb28a37f"},{"type":"Feature","properties":{"GEOID":25980,"NAME":"Hinesville, GA Metro Area","category":"growth","state":"GA","state0":"GA"},"geometry":{"type":"Point","coordinates":[-81.57648,31.778788]},"id":"b3b53ea61efecbb995c4a1387b6a1402"},{"type":"Feature","properties":{"GEOID":45180,"NAME":"Talladega-Sylacauga, AL Micro Area","category":"investment","state":"AL","state0":"AL"},"geometry":{"type":"Point","coordinates":[-86.197757,33.186086]},"id":"b3f4f169675807b72e127597e2175cce"},{"type":"Feature","properties":{"GEOID":19340,"NAME":"Davenport-Moline-Rock Island, IA-IL Metro Area","category":"investment","state":"IA-IL","state0":"IA","state1":"IL"},"geometry":{"type":"Point","coordinates":[-90.460076,41.39168]},"id":"b4879c6d63736f8167244c9167a1b134"},{"type":"Feature","properties":{"GEOID":21700,"NAME":"Eureka-Arcata-Fortuna, CA Micro Area","category":"growth","state":"CA","state0":"CA"},"geometry":{"type":"Point","coordinates":[-123.926176,40.706655]},"id":"b491a5dcea66964cf95b5ea031e263e6"},{"type":"Feature","properties":{"GEOID":19260,"NAME":"Danville, VA Micro Area","category":"investment","state":"VA","state0":"VA"},"geometry":{"type":"Point","coordinates":[-79.400122,36.811853]},"id":"b55d0d2eda8535641ac8a88208632ab1"},{"type":"Feature","properties":{"GEOID":14740,"NAME":"Bremerton-Silverdale, WA Metro Area","category":"capitalized","state":"WA","state0":"WA"},"geometry":{"type":"Point","coordinates":[-122.649636,47.639687]},"id":"b78dbeb60826b3d10361d9d2318771bf"},{"type":"Feature","properties":{"GEOID":40980,"NAME":"Saginaw, MI Metro Area","category":"opportunity","state":"MI","state0":"MI"},"geometry":{"type":"Point","coordinates":[-84.05541,43.328267]},"id":"b80f88c5b725e4d200e2fdd0cc562fa1"},{"type":"Feature","properties":{"GEOID":49660,"NAME":"Youngstown-Warren-Boardman, OH-PA Metro Area","category":"capitalized","state":"OH-PA","state0":"OH","state1":"PA"},"geometry":{"type":"Point","coordinates":[-80.561868,41.236302]},"id":"b97458df5c540621bd43ff94d1b3e3e1"},{"type":"Feature","properties":{"GEOID":43340,"NAME":"Shreveport-Bossier City, LA Metro Area","category":"investment","state":"LA","state0":"LA"},"geometry":{"type":"Point","coordinates":[-93.671191,32.490637]},"id":"b9f51479b45a0ad5c2350331594abb1b"},{"type":"Feature","properties":{"GEOID":38340,"NAME":"Pittsfield, MA Metro Area","category":"growth","state":"MA","state0":"MA"},"geometry":{"type":"Point","coordinates":[-73.213948,42.375314]},"id":"ba66697ffff85a182137a8f490ec3334"},{"type":"Feature","properties":{"GEOID":47940,"NAME":"Waterloo-Cedar Falls, IA Metro Area","category":"capitalized","state":"IA","state0":"IA"},"geometry":{"type":"Point","coordinates":[-92.471608,42.536796]},"id":"ba9e96ed018ef3525eed541f41f0e484"},{"type":"Feature","properties":{"GEOID":41740,"NAME":"San Diego-Carlsbad, CA Metro Area","category":"capitalized","state":"CA","state0":"CA"},"geometry":{"type":"Point","coordinates":[-116.776117,33.023604]},"id":"bb451971f1627fabdc9dff638d3df6c8"},{"type":"Feature","properties":{"GEOID":18140,"NAME":"Columbus, OH Metro Area","category":"capitalized","state":"OH","state0":"OH"},"geometry":{"type":"Point","coordinates":[-82.835911,39.968562]},"id":"bbf1272f82bb2e869f7180d83c675985"},{"type":"Feature","properties":{"GEOID":30620,"NAME":"Lima, OH Metro Area","category":"opportunity","state":"OH","state0":"OH"},"geometry":{"type":"Point","coordinates":[-84.106103,40.771627]},"id":"bd49f6a4eb390363d53f4f20df3aebbb"},{"type":"Feature","properties":{"GEOID":28580,"NAME":"Key West, FL Micro Area","category":"capitalized","state":"FL","state0":"FL"},"geometry":{"type":"Point","coordinates":[-82.00692,24.535414]},"id":"bf90b6d2c1a0290b133c10e31e95b3f2"},{"type":"Feature","properties":{"GEOID":26380,"NAME":"Houma-Thibodaux, LA Metro Area","category":"investment","state":"LA","state0":"LA"},"geometry":{"type":"Point","coordinates":[-90.843674,29.33413]},"id":"bfd93cb50992f9dfc5c082a407cb51c5"},{"type":"Feature","properties":{"GEOID":11180,"NAME":"Ames, IA Metro Area","category":"capitalized","state":"IA","state0":"IA"},"geometry":{"type":"Point","coordinates":[-93.466093,42.037538]},"id":"c0b0ecb74716efb4d8a5ac8dc5d2bf7b"},{"type":"Feature","properties":{"GEOID":17200,"NAME":"Claremont-Lebanon, NH-VT Micro Area","category":"growth","state":"NH-VT","state0":"NH","state1":"VT"},"geometry":{"type":"Point","coordinates":[-72.159125,43.785741]},"id":"c16f89a6ada31ae5f190bd4ee49bac49"},{"type":"Feature","properties":{"GEOID":41540,"NAME":"Salisbury, MD-DE Metro Area","category":"opportunity","state":"MD-DE","state0":"MD","state1":"DE"},"geometry":{"type":"Point","coordinates":[-75.478262,38.399521]},"id":"c22a368262e98e963fabba10310600e9"},{"type":"Feature","properties":{"GEOID":34620,"NAME":"Muncie, IN Metro Area","category":"investment","state":"IN","state0":"IN"},"geometry":{"type":"Point","coordinates":[-85.399262,40.227543]},"id":"c238615a259605658c1afcef78132fe0"},{"type":"Feature","properties":{"GEOID":43060,"NAME":"Shawnee, OK Micro Area","category":"investment","state":"OK","state0":"OK"},"geometry":{"type":"Point","coordinates":[-96.957007,35.211393]},"id":"c318466a5dba49fd330e7d99487f244a"},{"type":"Feature","properties":{"GEOID":38220,"NAME":"Pine Bluff, AR Metro Area","category":"investment","state":"AR","state0":"AR"},"geometry":{"type":"Point","coordinates":[-91.945729,34.081208]},"id":"c34a1e27ab0d98c1ec1cc17e8f34b0ad"},{"type":"Feature","properties":{"GEOID":16620,"NAME":"Charleston, WV Metro Area","category":"investment","state":"WV","state0":"WV"},"geometry":{"type":"Point","coordinates":[-81.492557,38.283213]},"id":"c3e4fb3305a5dc8f763fcc7e9d00df11"},{"type":"Feature","properties":{"GEOID":36100,"NAME":"Ocala, FL Metro Area","category":"investment","state":"FL","state0":"FL"},"geometry":{"type":"Point","coordinates":[-82.0431,29.202805]},"id":"c3f8504cc81a70aaf806d3897b86edea"},{"type":"Feature","properties":{"GEOID":46700,"NAME":"Vallejo-Fairfield, CA Metro Area","category":"capitalized","state":"CA","state0":"CA"},"geometry":{"type":"Point","coordinates":[-121.939594,38.267226]},"id":"c4184b6814221d179a436d0477c3cf9b"},{"type":"Feature","properties":{"GEOID":10740,"NAME":"Albuquerque, NM Metro Area","category":"opportunity","state":"NM","state0":"NM"},"geometry":{"type":"Point","coordinates":[-106.458368,35.123489]},"id":"c44b24f241cb95d4a552071201d51e32"},{"type":"Feature","properties":{"GEOID":27460,"NAME":"Jamestown-Dunkirk-Fredonia, NY Micro Area","category":"investment","state":"NY","state0":"NY"},"geometry":{"type":"Point","coordinates":[-79.407595,42.304216]},"id":"c5077dcf8613731ebebeea09df116bf2"},{"type":"Feature","properties":{"GEOID":45940,"NAME":"Trenton, NJ Metro Area","category":"capitalized","state":"NJ","state0":"NJ"},"geometry":{"type":"Point","coordinates":[-74.703724,40.282503]},"id":"c531ac4787e6cbdef375258c5eb87a3a"},{"type":"Feature","properties":{"GEOID":44180,"NAME":"Springfield, MO Metro Area","category":"investment","state":"MO","state0":"MO"},"geometry":{"type":"Point","coordinates":[-93.180262,37.36087]},"id":"c54a510edf690382fb4bb29c49452bc7"},{"type":"Feature","properties":{"GEOID":16220,"NAME":"Casper, WY Metro Area","category":"capitalized","state":"WY","state0":"WY"},"geometry":{"type":"Point","coordinates":[-106.768219,42.977645]},"id":"c66d3a8d8e3bdd9f3306695c540e1279"},{"type":"Feature","properties":{"GEOID":48060,"NAME":"Watertown-Fort Drum, NY Metro Area","category":"growth","state":"NY","state0":"NY"},"geometry":{"type":"Point","coordinates":[-76.052968,43.996389]},"id":"c67669cff2352a8465a65e519f728dcb"},{"type":"Feature","properties":{"GEOID":47380,"NAME":"Waco, TX Metro Area","category":"opportunity","state":"TX","state0":"TX"},"geometry":{"type":"Point","coordinates":[-97.093473,31.427226]},"id":"c6a57acf2c7d144743630378ff993206"},{"type":"Feature","properties":{"GEOID":19100,"NAME":"Dallas-Fort Worth-Arlington, TX Metro Area","category":"capitalized","state":"TX","state0":"TX"},"geometry":{"type":"Point","coordinates":[-97.025131,32.822558]},"id":"c7691bde9c40b174bd314a2fa7b1d778"},{"type":"Feature","properties":{"GEOID":40340,"NAME":"Rochester, MN Metro Area","category":"capitalized","state":"MN","state0":"MN"},"geometry":{"type":"Point","coordinates":[-92.335699,43.949917]},"id":"c800adc6316120d0e89d4f03999a2c43"},{"type":"Feature","properties":{"GEOID":16540,"NAME":"Chambersburg-Waynesboro, PA Metro Area","category":"investment","state":"PA","state0":"PA"},"geometry":{"type":"Point","coordinates":[-77.724497,39.926685]},"id":"c8955071f0a22c5beb2cf29f2e19f35a"},{"type":"Feature","properties":{"GEOID":20500,"NAME":"Durham-Chapel Hill, NC Metro Area","category":"capitalized","state":"NC","state0":"NC"},"geometry":{"type":"Point","coordinates":[-79.09699,35.995536]},"id":"c89a499f1ef2b8bd647fceb35c4e4e5a"},{"type":"Feature","properties":{"GEOID":18180,"NAME":"Concord, NH Micro Area","category":"capitalized","state":"NH","state0":"NH"},"geometry":{"type":"Point","coordinates":[-71.680041,43.299579]},"id":"c9949271529e1472d70510a85a1f28a0"},{"type":"Feature","properties":{"GEOID":23180,"NAME":"Frankfort, KY Micro Area","category":"investment","state":"KY","state0":"KY"},"geometry":{"type":"Point","coordinates":[-84.938336,38.120504]},"id":"cb1e43b6f39e9d52084d5b1c0d4ecc55"},{"type":"Feature","properties":{"GEOID":27740,"NAME":"Johnson City, TN Metro Area","category":"opportunity","state":"TN","state0":"TN"},"geometry":{"type":"Point","coordinates":[-82.332693,36.265822]},"id":"cb5c602e3a3846bc69fa8496060fa18e"},{"type":"Feature","properties":{"GEOID":41420,"NAME":"Salem, OR Metro Area","category":"capitalized","state":"OR","state0":"OR"},"geometry":{"type":"Point","coordinates":[-122.901757,44.903385]},"id":"cb970f871b2aa27de05eed3826de3b70"},{"type":"Feature","properties":{"GEOID":42340,"NAME":"Savannah, GA Metro Area","category":"capitalized","state":"GA","state0":"GA"},"geometry":{"type":"Point","coordinates":[-81.273107,32.109153]},"id":"cbe894337e42780d5dc8ae66aadaa3f6"},{"type":"Feature","properties":{"GEOID":38240,"NAME":"Pinehurst-Southern Pines, NC Micro Area","category":"growth","state":"NC","state0":"NC"},"geometry":{"type":"Point","coordinates":[-79.492725,35.308272]},"id":"cca80a5ac706ffae4b258cdfe4c7647c"},{"type":"Feature","properties":{"GEOID":47700,"NAME":"Warsaw, IN Micro Area","category":"investment","state":"IN","state0":"IN"},"geometry":{"type":"Point","coordinates":[-85.861575,41.244293]},"id":"ccede80d50eaab99a7f52b96822f80b9"},{"type":"Feature","properties":{"GEOID":38820,"NAME":"Port Angeles, WA Micro Area","category":"growth","state":"WA","state0":"WA"},"geometry":{"type":"Point","coordinates":[-123.88986,48.110903]},"id":"cd053b826b405b4e5b2645bad53589d6"},{"type":"Feature","properties":{"GEOID":36780,"NAME":"Oshkosh-Neenah, WI Metro Area","category":"capitalized","state":"WI","state0":"WI"},"geometry":{"type":"Point","coordinates":[-88.668149,44.085707]},"id":"cd1f43b9133b2d38c3a1bd16db4e50ac"},{"type":"Feature","properties":{"GEOID":30340,"NAME":"Lewiston-Auburn, ME Metro Area","category":"capitalized","state":"ME","state0":"ME"},"geometry":{"type":"Point","coordinates":[-70.207435,44.167681]},"id":"cd2027ce0c105a214d539a2db119b159"},{"type":"Feature","properties":{"GEOID":24140,"NAME":"Goldsboro, NC Metro Area","category":"opportunity","state":"NC","state0":"NC"},"geometry":{"type":"Point","coordinates":[-78.00867,35.35419]},"id":"cda911825bb6dd402b3d9275ea8258f0"},{"type":"Feature","properties":{"GEOID":47260,"NAME":"Virginia Beach-Norfolk-Newport News, VA-NC Metro Area","category":"capitalized","state":"VA-NC","state0":"VA","state1":"NC"},"geometry":{"type":"Point","coordinates":[-76.373791,36.856081]},"id":"ceec80480953e850e9935379bb574418"},{"type":"Feature","properties":{"GEOID":36460,"NAME":"Olean, NY Micro Area","category":"investment","state":"NY","state0":"NY"},"geometry":{"type":"Point","coordinates":[-78.662332,42.239099]},"id":"ceed876e79e9bbf9d25900233dc79976"},{"type":"Feature","properties":{"GEOID":26620,"NAME":"Huntsville, AL Metro Area","category":"capitalized","state":"AL","state0":"AL"},"geometry":{"type":"Point","coordinates":[-86.734871,34.783262]},"id":"cf6ef828a1ebca3c2a07ce6b4e96ee5f"},{"type":"Feature","properties":{"GEOID":11100,"NAME":"Amarillo, TX Metro Area","category":"opportunity","state":"TX","state0":"TX"},"geometry":{"type":"Point","coordinates":[-101.90867,35.248005]},"id":"d13e9d8511e4f7defa67c25508dd4bb0"},{"type":"Feature","properties":{"GEOID":29860,"NAME":"Laurel, MS Micro Area","category":"investment","state":"MS","state0":"MS"},"geometry":{"type":"Point","coordinates":[-89.148054,31.825463]},"id":"d20de0810671a3c3502874dfcf517806"},{"type":"Feature","properties":{"GEOID":43900,"NAME":"Spartanburg, SC Metro Area","category":"opportunity","state":"SC","state0":"SC"},"geometry":{"type":"Point","coordinates":[-81.842401,34.83462]},"id":"d256b76259f08cc60c4d1b9057b101dd"},{"type":"Feature","properties":{"GEOID":36300,"NAME":"Ogdensburg-Massena, NY Micro Area","category":"growth","state":"NY","state0":"NY"},"geometry":{"type":"Point","coordinates":[-75.074311,44.488112]},"id":"d2e7b798736af51c03cafcc7e577ab90"},{"type":"Feature","properties":{"GEOID":25620,"NAME":"Hattiesburg, MS Metro Area","category":"investment","state":"MS","state0":"MS"},"geometry":{"type":"Point","coordinates":[-89.232741,31.188441]},"id":"d36aaf536d8331980161cdc8517e86cf"},{"type":"Feature","properties":{"GEOID":38460,"NAME":"Plattsburgh, NY Micro Area","category":"growth","state":"NY","state0":"NY"},"geometry":{"type":"Point","coordinates":[-73.705643,44.752712]},"id":"d3fc6e2faadb86bceaa09c7c641512b4"},{"type":"Feature","properties":{"GEOID":13980,"NAME":"Blacksburg-Christiansburg-Radford, VA Metro Area","category":"investment","state":"VA","state0":"VA"},"geometry":{"type":"Point","coordinates":[-80.531517,37.121364]},"id":"d40bf5faead43adbb95b5275469c830b"},{"type":"Feature","properties":{"GEOID":39300,"NAME":"Providence-Warwick, RI-MA Metro Area","category":"capitalized","state":"RI-MA","state0":"RI","state1":"MA"},"geometry":{"type":"Point","coordinates":[-71.286637,41.706831]},"id":"d40c73322d29d39e04c0d8c1066abee0"},{"type":"Feature","properties":{"GEOID":12020,"NAME":"Athens-Clarke County, GA Metro Area","category":"growth","state":"GA","state0":"GA"},"geometry":{"type":"Point","coordinates":[-83.213897,33.943984]},"id":"d40fda45cf7305f534630d4f0c8edfc7"},{"type":"Feature","properties":{"GEOID":28020,"NAME":"Kalamazoo-Portage, MI Metro Area","category":"growth","state":"MI","state0":"MI"},"geometry":{"type":"Point","coordinates":[-86.037373,42.268871]},"id":"d49b0bc50c25ecc1e41d824e9a1c808a"},{"type":"Feature","properties":{"GEOID":39020,"NAME":"Portsmouth, OH Micro Area","category":"investment","state":"OH","state0":"OH"},"geometry":{"type":"Point","coordinates":[-82.998675,38.814889]},"id":"d4ccf6e37711f61212b13006447fcba6"},{"type":"Feature","properties":{"GEOID":13020,"NAME":"Bay City, MI Metro Area","category":"growth","state":"MI","state0":"MI"},"geometry":{"type":"Point","coordinates":[-83.978701,43.699711]},"id":"d53b664c7655b74b722b697c2a3c9459"},{"type":"Feature","properties":{"GEOID":15940,"NAME":"Canton-Massillon, OH Metro Area","category":"growth","state":"OH","state0":"OH"},"geometry":{"type":"Point","coordinates":[-81.261474,40.711072]},"id":"d622f06cad4a4d1c88dfc037c7e97e0c"},{"type":"Feature","properties":{"GEOID":41140,"NAME":"St. Joseph, MO-KS Metro Area","category":"investment","state":"MO-KS","state0":"MO","state1":"KS"},"geometry":{"type":"Point","coordinates":[-94.783754,39.834843]},"id":"d64aca6aefac3a652ee244d82180fedd"},{"type":"Feature","properties":{"GEOID":28900,"NAME":"Klamath Falls, OR Micro Area","category":"investment","state":"OR","state0":"OR"},"geometry":{"type":"Point","coordinates":[-121.646168,42.683761]},"id":"d6fad97f8b32a8c34a043963959b5785"},{"type":"Feature","properties":{"GEOID":48700,"NAME":"Williamsport, PA Metro Area","category":"growth","state":"PA","state0":"PA"},"geometry":{"type":"Point","coordinates":[-77.055225,41.34362]},"id":"d76942625445e9746ded94a97ab1d041"},{"type":"Feature","properties":{"GEOID":38900,"NAME":"Portland-Vancouver-Hillsboro, OR-WA Metro Area","category":"capitalized","state":"OR-WA","state0":"OR","state1":"WA"},"geometry":{"type":"Point","coordinates":[-122.484346,45.60062]},"id":"d7845adeee416b371dcca84311a596c6"},{"type":"Feature","properties":{"GEOID":29380,"NAME":"Lake City, FL Micro Area","category":"investment","state":"FL","state0":"FL"},"geometry":{"type":"Point","coordinates":[-82.623168,30.221333]},"id":"d80d2a6baf15cb1511efb2c7c9a48658"},{"type":"Feature","properties":{"GEOID":34860,"NAME":"Nacogdoches, TX Micro Area","category":"investment","state":"TX","state0":"TX"},"geometry":{"type":"Point","coordinates":[-94.62025,31.62056]},"id":"d87dc153cfb8f13daa831e17785646e2"},{"type":"Feature","properties":{"GEOID":14860,"NAME":"Bridgeport-Stamford-Norwalk, CT Metro Area","category":"capitalized","state":"CT","state0":"CT"},"geometry":{"type":"Point","coordinates":[-73.367061,41.227413]},"id":"d951cb62365756fd8866dae4460a21ed"},{"type":"Feature","properties":{"GEOID":30300,"NAME":"Lewiston, ID-WA Metro Area","category":"investment","state":"ID-WA","state0":"ID","state1":"WA"},"geometry":{"type":"Point","coordinates":[-116.925017,46.251696]},"id":"d99188e4215bb4fd58b6940acf11cad0"},{"type":"Feature","properties":{"GEOID":35100,"NAME":"New Bern, NC Metro Area","category":"growth","state":"NC","state0":"NC"},"geometry":{"type":"Point","coordinates":[-77.08132,35.116829]},"id":"d99ecf72c0f44e372b120010cfada185"},{"type":"Feature","properties":{"GEOID":42020,"NAME":"San Luis Obispo-Paso Robles-Arroyo Grande, CA Metro Area","category":"capitalized","state":"CA","state0":"CA"},"geometry":{"type":"Point","coordinates":[-120.447544,35.385224]},"id":"da27ad4e1b9463917436676ad124ce71"},{"type":"Feature","properties":{"GEOID":41660,"NAME":"San Angelo, TX Metro Area","category":"opportunity","state":"TX","state0":"TX"},"geometry":{"type":"Point","coordinates":[-100.659418,31.36531]},"id":"da4a3669b7a46ab6e7c27682a6ae6e59"},{"type":"Feature","properties":{"GEOID":36500,"NAME":"Olympia-Tumwater, WA Metro Area","category":"capitalized","state":"WA","state0":"WA"},"geometry":{"type":"Point","coordinates":[-122.830152,46.935822]},"id":"da4e1626461920cae6770492ff618b50"},{"type":"Feature","properties":{"GEOID":22900,"NAME":"Fort Smith, AR-OK Metro Area","category":"investment","state":"AR-OK","state0":"AR","state1":"OK"},"geometry":{"type":"Point","coordinates":[-94.562533,35.195534]},"id":"dac92928bd6a283dda7341400a2772c2"},{"type":"Feature","properties":{"GEOID":43620,"NAME":"Sioux Falls, SD Metro Area","category":"capitalized","state":"SD","state0":"SD"},"geometry":{"type":"Point","coordinates":[-96.995339,43.49542]},"id":"db28d8b4b6071f1cbaba536a0e4bdb8b"},{"type":"Feature","properties":{"GEOID":12540,"NAME":"Bakersfield, CA Metro Area","category":"opportunity","state":"CA","state0":"CA"},"geometry":{"type":"Point","coordinates":[-118.729506,35.346629]},"id":"de7d0eaa06295540f141a5addfe4baf9"},{"type":"Feature","properties":{"GEOID":42940,"NAME":"Sevierville, TN Micro Area","category":"investment","state":"TN","state0":"TN"},"geometry":{"type":"Point","coordinates":[-83.515696,35.80181]},"id":"de81569cf01d90002991fcf5eae2c546"},{"type":"Feature","properties":{"GEOID":15260,"NAME":"Brunswick, GA Metro Area","category":"capitalized","state":"GA","state0":"GA"},"geometry":{"type":"Point","coordinates":[-81.588909,31.301739]},"id":"de83eb7fce1a91b32e484dc4ce1a619d"},{"type":"Feature","properties":{"GEOID":26020,"NAME":"Hobbs, NM Micro Area","category":"investment","state":"NM","state0":"NM"},"geometry":{"type":"Point","coordinates":[-103.413271,32.795687]},"id":"df02a304408935fbf3e395a3556b4df2"},{"type":"Feature","properties":{"GEOID":42620,"NAME":"Searcy, AR Micro Area","category":"investment","state":"AR","state0":"AR"},"geometry":{"type":"Point","coordinates":[-91.753034,35.255118]},"id":"df6abd847b66283dbba2e963a8b29b9b"},{"type":"Feature","properties":{"GEOID":46380,"NAME":"Ukiah, CA Micro Area","category":"investment","state":"CA","state0":"CA"},"geometry":{"type":"Point","coordinates":[-123.442881,39.432388]},"id":"df82199bbe6f26a41a6377af910fa592"},{"type":"Feature","properties":{"GEOID":10460,"NAME":"Alamogordo, NM Micro Area","category":"investment","state":"NM","state0":"NM"},"geometry":{"type":"Point","coordinates":[-105.78098,32.588776]},"id":"df8631d533fec41a4699e9077a46006d"},{"type":"Feature","properties":{"GEOID":33740,"NAME":"Monroe, LA Metro Area","category":"investment","state":"LA","state0":"LA"},"geometry":{"type":"Point","coordinates":[-92.262793,32.690477]},"id":"dfe1b6fe2458a321dd0850aef90c0c24"},{"type":"Feature","properties":{"GEOID":45500,"NAME":"Texarkana, TX-AR Metro Area","category":"investment","state":"TX-AR","state0":"TX","state1":"AR"},"geometry":{"type":"Point","coordinates":[-94.207169,33.47837]},"id":"e0625ddb39d60355ea638213c8fe161e"},{"type":"Feature","properties":{"GEOID":19780,"NAME":"Des Moines-West Des Moines, IA Metro Area","category":"capitalized","state":"IA","state0":"IA"},"geometry":{"type":"Point","coordinates":[-93.943487,41.54486]},"id":"e093bc41cb64230c148f398a9de4250f"},{"type":"Feature","properties":{"GEOID":32940,"NAME":"Meridian, MS Micro Area","category":"investment","state":"MS","state0":"MS"},"geometry":{"type":"Point","coordinates":[-88.661926,32.410674]},"id":"e0f03558c3ad2a3f3d6ecb8750916587"},{"type":"Feature","properties":{"GEOID":49340,"NAME":"Worcester, MA-CT Metro Area","category":"capitalized","state":"MA-CT","state0":"MA","state1":"CT"},"geometry":{"type":"Point","coordinates":[-71.925535,42.217311]},"id":"e14b5b3e3cead2e321054bc091b3323c"},{"type":"Feature","properties":{"GEOID":25220,"NAME":"Hammond, LA Metro Area","category":"investment","state":"LA","state0":"LA"},"geometry":{"type":"Point","coordinates":[-90.406633,30.62158]},"id":"e15b2b27384e162da9f4c28094f2d479"},{"type":"Feature","properties":{"GEOID":36540,"NAME":"Omaha-Council Bluffs, NE-IA Metro Area","category":"capitalized","state":"NE-IA","state0":"NE","state1":"IA"},"geometry":{"type":"Point","coordinates":[-95.99997,41.290459]},"id":"e205510009077591e2142344b0b9549a"},{"type":"Feature","properties":{"GEOID":31080,"NAME":"Los Angeles-Long Beach-Anaheim, CA Metro Area","category":"capitalized","state":"CA","state0":"CA"},"geometry":{"type":"Point","coordinates":[-118.182549,34.109024]},"id":"e2ed37838aa368ed9850648f8aee56db"},{"type":"Feature","properties":{"GEOID":49620,"NAME":"York-Hanover, PA Metro Area","category":"capitalized","state":"PA","state0":"PA"},"geometry":{"type":"Point","coordinates":[-76.728889,39.921751]},"id":"e371ea7b26bb33cc661acd34b14a788d"},{"type":"Feature","properties":{"GEOID":33540,"NAME":"Missoula, MT Metro Area","category":"growth","state":"MT","state0":"MT"},"geometry":{"type":"Point","coordinates":[-113.892691,47.027263]},"id":"e53cfea011a8f64a232248ce4d0ca74f"},{"type":"Feature","properties":{"GEOID":40220,"NAME":"Roanoke, VA Metro Area","category":"investment","state":"VA","state0":"VA"},"geometry":{"type":"Point","coordinates":[-79.946935,37.286226]},"id":"e57d7d84408cf83136076956fdb4a55f"},{"type":"Feature","properties":{"GEOID":21780,"NAME":"Evansville, IN-KY Metro Area","category":"investment","state":"IN-KY","state0":"IN","state1":"KY"},"geometry":{"type":"Point","coordinates":[-87.586166,38.02007]},"id":"e5935ab582856280300c9aec7cf8af99"},{"type":"Feature","properties":{"GEOID":40580,"NAME":"Rocky Mount, NC Metro Area","category":"investment","state":"NC","state0":"NC"},"geometry":{"type":"Point","coordinates":[-77.798549,35.941045]},"id":"e5dbff91426a09ae5036c90e1d4b7dd9"},{"type":"Feature","properties":{"GEOID":22660,"NAME":"Fort Collins, CO Metro Area","category":"capitalized","state":"CO","state0":"CO"},"geometry":{"type":"Point","coordinates":[-105.486764,40.658093]},"id":"e7199aef3bbfdfb27840c2976446c002"},{"type":"Feature","properties":{"GEOID":47220,"NAME":"Vineland-Bridgeton, NJ Metro Area","category":"opportunity","state":"NJ","state0":"NJ"},"geometry":{"type":"Point","coordinates":[-75.121628,39.328434]},"id":"e72680a9ff32f93f134554f87e6b32f2"},{"type":"Feature","properties":{"GEOID":47580,"NAME":"Warner Robins, GA Metro Area","category":"capitalized","state":"GA","state0":"GA"},"geometry":{"type":"Point","coordinates":[-83.635095,32.401594]},"id":"e83691db5fae3d7a14b525ce2023bbbd"},{"type":"Feature","properties":{"GEOID":25740,"NAME":"Helena, MT Micro Area","category":"capitalized","state":"MT","state0":"MT"},"geometry":{"type":"Point","coordinates":[-112.284031,46.811354]},"id":"e9d5e6fd085e76dffda91e5bb84052d2"},{"type":"Feature","properties":{"GEOID":41060,"NAME":"St. Cloud, MN Metro Area","category":"growth","state":"MN","state0":"MN"},"geometry":{"type":"Point","coordinates":[-94.488363,45.593031]},"id":"eb131500d1f99b6e22070de4a09571e9"},{"type":"Feature","properties":{"GEOID":24780,"NAME":"Greenville, NC Metro Area","category":"opportunity","state":"NC","state0":"NC"},"geometry":{"type":"Point","coordinates":[-77.373138,35.592965]},"id":"eb589f98ef7c206e2b4d80493c14c5b8"},{"type":"Feature","properties":{"GEOID":20940,"NAME":"El Centro, CA Metro Area","category":"investment","state":"CA","state0":"CA"},"geometry":{"type":"Point","coordinates":[-115.3554,33.040813]},"id":"eb7fb371f12761b961fcba79612dc997"},{"type":"Feature","properties":{"GEOID":13140,"NAME":"Beaumont-Port Arthur, TX Metro Area","category":"investment","state":"TX","state0":"TX"},"geometry":{"type":"Point","coordinates":[-94.120371,30.347833]},"id":"ebb6d241b76010d9867b14b8fa9b7ba0"},{"type":"Feature","properties":{"GEOID":34980,"NAME":"Nashville-Davidson--Murfreesboro--Franklin, TN Metro Area","category":"capitalized","state":"TN","state0":"TN"},"geometry":{"type":"Point","coordinates":[-86.726602,36.088507]},"id":"ebc667f04534f280074dda774c58634c"},{"type":"Feature","properties":{"GEOID":34900,"NAME":"Napa, CA Metro Area","category":"capitalized","state":"CA","state0":"CA"},"geometry":{"type":"Point","coordinates":[-122.325904,38.5071]},"id":"ec57023f96b147a1e07e70b7a77e7aa6"},{"type":"Feature","properties":{"GEOID":25420,"NAME":"Harrisburg-Carlisle, PA Metro Area","category":"capitalized","state":"PA","state0":"PA"},"geometry":{"type":"Point","coordinates":[-77.050475,40.335924]},"id":"ec9ba4b5f561c19fb5f0bfa75ff81d90"},{"type":"Feature","properties":{"GEOID":17220,"NAME":"Clarksburg, WV Micro Area","category":"growth","state":"WV","state0":"WV"},"geometry":{"type":"Point","coordinates":[-80.43153,39.28835]},"id":"ecb872cce9c06854bbf88e72efa05e2a"},{"type":"Feature","properties":{"GEOID":32220,"NAME":"Marshall, TX Micro Area","category":"investment","state":"TX","state0":"TX"},"geometry":{"type":"Point","coordinates":[-94.374434,32.547991]},"id":"ed2a96a060ccfc7d7bb2d1ebce125677"},{"type":"Feature","properties":{"GEOID":16860,"NAME":"Chattanooga, TN-GA Metro Area","category":"opportunity","state":"TN-GA","state0":"TN","state1":"GA"},"geometry":{"type":"Point","coordinates":[-85.361158,35.049361]},"id":"ed9af6dffe51a921a5d2b5d4e0bfe948"},{"type":"Feature","properties":{"GEOID":16580,"NAME":"Champaign-Urbana, IL Metro Area","category":"capitalized","state":"IL","state0":"IL"},"geometry":{"type":"Point","coordinates":[-88.298623,40.234489]},"id":"edee5ecf12a62fcb5f2774e1fc126458"},{"type":"Feature","properties":{"GEOID":41100,"NAME":"St. George, UT Metro Area","category":"capitalized","state":"UT","state0":"UT"},"geometry":{"type":"Point","coordinates":[-113.4878,37.262531]},"id":"ee53c02c9f1956afeed289c3544dfc33"},{"type":"Feature","properties":{"GEOID":10500,"NAME":"Albany, GA Metro Area","category":"investment","state":"GA","state0":"GA"},"geometry":{"type":"Point","coordinates":[-84.174913,31.589303]},"id":"ee894716af3043e627027007988ab1c0"},{"type":"Feature","properties":{"GEOID":34580,"NAME":"Mount Vernon-Anacortes, WA Metro Area","category":"capitalized","state":"WA","state0":"WA"},"geometry":{"type":"Point","coordinates":[-121.81577,48.493292]},"id":"ef584436311fc1584d23a5fa52e8e26b"},{"type":"Feature","properties":{"GEOID":13740,"NAME":"Billings, MT Metro Area","category":"capitalized","state":"MT","state0":"MT"},"geometry":{"type":"Point","coordinates":[-108.727871,45.775453]},"id":"ef71dc8cf426d0ef6617d0c63a7bb1f0"},{"type":"Feature","properties":{"GEOID":24860,"NAME":"Greenville-Anderson-Mauldin, SC Metro Area","category":"capitalized","state":"SC","state0":"SC"},"geometry":{"type":"Point","coordinates":[-82.413423,34.683709]},"id":"f00e3730cf907eb9714eadcb6ca6bf71"},{"type":"Feature","properties":{"GEOID":30700,"NAME":"Lincoln, NE Metro Area","category":"capitalized","state":"NE","state0":"NE"},"geometry":{"type":"Point","coordinates":[-96.868743,40.817458]},"id":"f1b5cc43d6fb4a0ec97b7f1edfb700e9"},{"type":"Feature","properties":{"GEOID":40740,"NAME":"Roswell, NM Micro Area","category":"investment","state":"NM","state0":"NM"},"geometry":{"type":"Point","coordinates":[-104.469837,33.361604]},"id":"f1d3d78f938fe54cc8123cf74f0ee14e"},{"type":"Feature","properties":{"GEOID":15980,"NAME":"Cape Coral-Fort Myers, FL Metro Area","category":"capitalized","state":"FL","state0":"FL"},"geometry":{"type":"Point","coordinates":[-81.891994,26.559035]},"id":"f2319adc5f5c679c41e06222f6ef2de4"},{"type":"Feature","properties":{"GEOID":16060,"NAME":"Carbondale-Marion, IL Metro Area","category":"investment","state":"IL","state0":"IL"},"geometry":{"type":"Point","coordinates":[-89.193181,37.757331]},"id":"f2344aa2518346264d16856acdebfadc"},{"type":"Feature","properties":{"GEOID":29460,"NAME":"Lakeland-Winter Haven, FL Metro Area","category":"opportunity","state":"FL","state0":"FL"},"geometry":{"type":"Point","coordinates":[-81.692783,27.953115]},"id":"f2db6ce9a2a8b02d4e50192752555974"},{"type":"Feature","properties":{"GEOID":22300,"NAME":"Findlay, OH Micro Area","category":"capitalized","state":"OH","state0":"OH"},"geometry":{"type":"Point","coordinates":[-83.666034,41.000471]},"id":"f4056e0a5dc7813e5416eeec0b94bf24"},{"type":"Feature","properties":{"GEOID":18700,"NAME":"Corvallis, OR Metro Area","category":"capitalized","state":"OR","state0":"OR"},"geometry":{"type":"Point","coordinates":[-123.424664,44.493882]},"id":"f6621b5c429e146c2b4e55721cb61036"},{"type":"Feature","properties":{"GEOID":43780,"NAME":"South Bend-Mishawaka, IN-MI Metro Area","category":"investment","state":"IN-MI","state0":"IN","state1":"MI"},"geometry":{"type":"Point","coordinates":[-86.123014,41.774981]},"id":"f6743bf3aac47411849c569c405b3365"},{"type":"Feature","properties":{"GEOID":45900,"NAME":"Traverse City, MI Micro Area","category":"growth","state":"MI","state0":"MI"},"geometry":{"type":"Point","coordinates":[-85.90832,44.952324]},"id":"f6c0d50a7247bb96afcf382035a4c6c4"},{"type":"Feature","properties":{"GEOID":12060,"NAME":"Atlanta-Sandy Springs-Roswell, GA Metro Area","category":"capitalized","state":"GA","state0":"GA"},"geometry":{"type":"Point","coordinates":[-84.399911,33.693728]},"id":"f91c45ebaf02f099a27d916d3106d508"},{"type":"Feature","properties":{"GEOID":13900,"NAME":"Bismarck, ND Metro Area","category":"capitalized","state":"ND","state0":"ND"},"geometry":{"type":"Point","coordinates":[-100.996096,46.726594]},"id":"f934fe24a8230581b42377b42e402807"},{"type":"Feature","properties":{"GEOID":24020,"NAME":"Glens Falls, NY Metro Area","category":"capitalized","state":"NY","state0":"NY"},"geometry":{"type":"Point","coordinates":[-73.636757,43.44045]},"id":"fa92f1c6652659df8ceaaca3da11a4d1"},{"type":"Feature","properties":{"GEOID":22540,"NAME":"Fond du Lac, WI Metro Area","category":"growth","state":"WI","state0":"WI"},"geometry":{"type":"Point","coordinates":[-88.493284,43.754722]},"id":"fad671aac0bae67182a053ba562682d8"},{"type":"Feature","properties":{"GEOID":29200,"NAME":"Lafayette-West Lafayette, IN Metro Area","category":"growth","state":"IN","state0":"IN"},"geometry":{"type":"Point","coordinates":[-86.930475,40.514717]},"id":"fc387eb6af9ac92c3d4e089e1a7cb7da"},{"type":"Feature","properties":{"GEOID":22420,"NAME":"Flint, MI Metro Area","category":"opportunity","state":"MI","state0":"MI"},"geometry":{"type":"Point","coordinates":[-83.706372,43.021077]},"id":"fc863398b1434fb819ac4b334cea8cc3"},{"type":"Feature","properties":{"GEOID":19660,"NAME":"Deltona-Daytona Beach-Ormond Beach, FL Metro Area","category":"opportunity","state":"FL","state0":"FL"},"geometry":{"type":"Point","coordinates":[-81.189023,29.1789]},"id":"fcb71571b956ff98904f95be522604e9"},{"type":"Feature","properties":{"GEOID":40700,"NAME":"Roseburg, OR Micro Area","category":"investment","state":"OR","state0":"OR"},"geometry":{"type":"Point","coordinates":[-123.154476,43.286328]},"id":"fcc0b341eb297f9e46699835b843df4d"},{"type":"Feature","properties":{"GEOID":19140,"NAME":"Dalton, GA Metro Area","category":"opportunity","state":"GA","state0":"GA"},"geometry":{"type":"Point","coordinates":[-84.85633,34.796922]},"id":"fce81c78de96532452d7af905a9a296f"},{"type":"Feature","properties":{"GEOID":13820,"NAME":"Birmingham-Hoover, AL Metro Area","category":"investment","state":"AL","state0":"AL"},"geometry":{"type":"Point","coordinates":[-86.814338,33.462372]},"id":"fd5d77dd07bfbe7d7800cccdbe72e8d5"},{"type":"Feature","properties":{"GEOID":25940,"NAME":"Hilton Head Island-Bluffton-Beaufort, SC Metro Area","category":"growth","state":"SC","state0":"SC"},"geometry":{"type":"Point","coordinates":[-80.830877,32.386792]},"id":"fd6dc80254e455a7abe7fbd65e6ab9e8"},{"type":"Feature","properties":{"GEOID":33340,"NAME":"Milwaukee-Waukesha-West Allis, WI Metro Area","category":"capitalized","state":"WI","state0":"WI"},"geometry":{"type":"Point","coordinates":[-87.9065,43.0389]},"id":"fd84e8743c28a363d0dc22535f16d2d7"},{"type":"Feature","properties":{"GEOID":39340,"NAME":"Provo-Orem, UT Metro Area","category":"capitalized","state":"UT","state0":"UT"},"geometry":{"type":"Point","coordinates":[-112.359059,39.872067]},"id":"fda71c887c9260a73145f47d99c2c0c3"},{"type":"Feature","properties":{"GEOID":44980,"NAME":"Sunbury, PA Micro Area","category":"investment","state":"PA","state0":"PA"},"geometry":{"type":"Point","coordinates":[-76.709877,40.851524]},"id":"fe0b72640856a1a8cb44728919ba6ade"},{"type":"Feature","properties":{"GEOID":11020,"NAME":"Altoona, PA Metro Area","category":"opportunity","state":"PA","state0":"PA"},"geometry":{"type":"Point","coordinates":[-78.310636,40.497922]},"id":"fe554780ead1d1cdf6bae9f27f001a54"},{"type":"Feature","properties":{"GEOID":17460,"NAME":"Cleveland-Elyria, OH Metro Area","category":"capitalized","state":"OH","state0":"OH"},"geometry":{"type":"Point","coordinates":[-81.724217,41.760392]},"id":"fec8eb431fe3211176226e4b3d3ac838"},{"type":"Feature","properties":{"GEOID":15500,"NAME":"Burlington, NC Metro Area","category":"opportunity","state":"NC","state0":"NC"},"geometry":{"type":"Point","coordinates":[-79.400573,36.043954]},"id":"fee37ec862ccde4c7d3a4fa9cb7914b3"},{"type":"Feature","properties":{"marker-color":"#7e7e7e","marker-size":"medium","marker-symbol":"","GEOID":25900,"category":"investment","state":"HI","state0":"HI","NAME":"Hilo, HI"},"geometry":{"type":"Point","coordinates":[-155.089090,19.725260]}},{"type":"Feature","properties":{"marker-color":"#7e7e7e","marker-size":"medium","marker-symbol":"","GEOID":27980,"category":"capitalized","state":"HI","state0":"HI","NAME":"Kahului-Wailuku-Lahaina, HI"},"geometry":{"type":"Point","coordinates":[-156.467850,20.888030]}},{"type":"Feature","properties":{"marker-color":"#7e7e7e","marker-size":"medium","marker-symbol":"","GEOID":46520,"category":"capitalized","state":"HI","state0":"HI","NAME":"Urban Honolulu, HI"},"geometry":{"type":"Point","coordinates":[-157.858337,21.306944]}},{"type":"Feature","properties":{"marker-color":"#7e7e7e","marker-size":"medium","marker-symbol":"","GEOID":28180,"category":"investment","state":"HI","state0":"HI","NAME":"Kapaa, HI"},"geometry":{"type":"Point","coordinates":[-159.318260,22.076140]}},{"type":"Feature","properties":{"marker-color":"#7e7e7e","marker-size":"medium","marker-symbol":"","GEOID":21820,"category":"growth","state":"AK","state0":"AK","NAME":"Fairbanks, AK"},"geometry":{"type":"Point","coordinates":[-147.716385,64.837776]}},{"type":"Feature","properties":{"marker-color":"#7e7e7e","marker-size":"medium","marker-symbol":"","GEOID":11260,"category":"capitalized","state":"AK","state0":"AK","NAME":"Anchorage, AK"},"geometry":{"type":"Point","coordinates":[-149.900284,61.218056]}}]}
